frame,sim_time,x,y,z,yaw,pitch,roll,speed_mps,throttle,brake,steer,gear,acc_x,acc_y,acc_z,gnss_lat,gnss_lon,gnss_alt,imu_acc_x,imu_acc_y,imu_acc_z,imu_gyro_x,imu_gyro_y,imu_gyro_z,imu_compass,wp_x,wp_y,wp_road_id,wp_lane_id,odom_m,cloudiness,precipitation,sun_altitude,n_collisions,n_lane_invasions
1469,0.0,236.00978088378906,-2.0120322704315186,-0.003934268839657307,-179.72923278808594,-0.007205849047750235,-0.0022277827374637127,5.2345546870930635,0.8500000238418579,0.0,0.00017573311924934387,2,-0.15870094299316406,-0.013927891850471497,0.010010909289121628,-1.2378446140620082e-05,0.0021170632787249817,2.79606556892395,0.5889212489128113,0.0318901352584362,9.817572593688965,6.367847527144477e-05,-0.002730682259425521,-0.007873944006860256,4.717114448547363,236.00892639160156,-2.0358126163482666,1,-1,0.0,5.0,0.0,45.0,0,0
1470,0.05,235.7450408935547,-2.0133559703826904,-0.003966541029512882,-179.7371063232422,0.002315433928743005,-0.0020751953125,5.316874938708528,0.8500000238418579,0.0,-0.0006155604496598244,2,-1.6465568542480469,0.028227493166923523,0.0062492359429597855,-1.0588247111596354e-05,0.002104304525969816,2.7960331439971924,1.5802394151687622,-0.0374407097697258,9.808375358581543,-0.00012872990919277072,-0.0034198490902781487,-0.002829075325280428,4.716977119445801,235.74417114257812,-2.0358409881591797,1,-1,0.2647432994635704,5.0,0.0,45.0,0,0
1471,0.1,235.47488403320312,-2.0146684646606445,-0.004009723663330078,-179.74403381347656,0.014077018946409225,-0.0017089841421693563,5.401966274085419,0.8500000238418579,0.0,0.00017573311924934387,2,-1.7017841339111328,-0.013010464608669281,0.002771378494799137,-1.7548086073233e-05,0.0021068826566159955,2.795990228652954,2.132385015487671,-0.00969175435602665,9.80510139465332,-0.00013818057777825743,-0.0036568522918969393,0.0003178688639309257,4.716856479644775,235.47402954101562,-2.035869598388672,1,-1,0.5349033480204273,5.0,0.0,45.0,0,0
1472,0.15000000000000002,235.20077514648438,-2.015730381011963,-0.004048709757626057,-179.7496337890625,0.02566101960837841,-0.00033569333027116954,5.489155318961514,0.8500000238418579,0.0,-0.003941510803997517,2,-1.7443561553955078,0.1420069932937622,-0.00011405907571315765,-2.3555327388548987e-05,0.002122905017677391,2.7959508895874023,1.5740269422531128,-0.08734890818595886,9.810858726501465,-0.000636788725387305,-0.00359643017873168,-0.005491521209478378,4.716758728027344,235.19992065429688,-2.0358989238739014,1,-1,0.8090142916993138,5.0,0.0,45.0,0,0
1473,0.2,234.92303466796875,-2.016641139984131,-0.004079837817698717,-179.75955200195312,0.036015585064888,0.001536527299322188,5.591179566494263,0.8500000238418579,0.0,-0.0027679060585796833,2,-2.0406150817871094,0.039077289402484894,-0.0023900996893644333,-6.822259172053444e-08,0.002106673275576613,2.795919418334961,1.4959430694580078,-0.05706237256526947,9.812185287475586,-0.0006559657631441951,-0.0035492973402142525,-0.005031263921409845,4.716585636138916,234.92218017578125,-2.03592848777771,1,-1,1.0867562634788663,5.0,0.0,45.0,0,0
1474,0.25,234.6419219970703,-2.017472743988037,-0.004100360907614231,-179.76748657226562,0.04438939690589905,0.003193451091647148,5.664103120795224,0.8500000238418579,0.0,-0.0024246922694146633,2,-1.4585208892822266,0.015595443546772003,-0.0039773923344910145,-3.294698989009892e-05,0.0021218818886301356,2.795898675918579,1.3874478340148926,-0.04169356822967529,9.813145637512207,-0.0005298389587551355,-0.0029002856463193893,-0.0016430593095719814,4.716446876525879,234.64105224609375,-2.0359585285186768,1,-1,1.3678701644245017,5.0,0.0,45.0,0,0
1475,0.30000000000000004,234.3568572998047,-2.01829195022583,-0.004115543328225613,-179.77662658691406,0.05100101977586746,0.0044553703628480434,5.697738408870642,0.8500000238418579,0.0,-0.0023053851909935474,2,-0.6727409362792969,0.01217605546116829,-0.0049041761085391045,-2.597447730587737e-05,0.0021032949016382466,2.7958831787109375,1.6186726093292236,-0.019539374858140945,9.810750007629395,-0.0003876879927702248,-0.0014957390958443284,-0.004737118724733591,4.716287612915039,234.3560028076172,-2.0359890460968018,1,-1,1.6529360387869068,5.0,0.0,45.0,0,0
1476,0.35000000000000003,234.06915283203125,-2.0190789699554443,-0.004116382449865341,-179.78314208984375,0.05475762486457825,0.005217735189944506,5.798915207354718,0.8500000238418579,0.0,-0.002069266512989998,2,-2.0235443115234375,0.00044500455260276794,-0.005214500706642866,-1.733673576661301e-05,0.00210239840094464,2.795882225036621,1.129286766052246,-0.0277106910943985,9.814704895019531,-0.00019900029292330146,-0.0013123339740559459,-0.00020361572387628257,4.716174125671387,234.06829833984375,-2.036019802093506,1,-1,1.9406415830102528,5.0,0.0,45.0,0,0
1477,0.4,233.77728271484375,-2.0199134349823,-0.004117527045309544,-179.79676818847656,0.05715502053499222,0.005625443533062935,5.863753151657,0.8500000238418579,0.0,-0.0021547055803239346,2,-1.2967967987060547,0.013752561062574387,-0.004987143911421299,-1.2756777150370486e-05,0.0021173284979867407,2.7958810329437256,1.7098177671432495,0.005429187789559364,9.808222770690918,-0.00011700730101438239,-0.0005342130898497999,-0.008573807775974274,4.715935707092285,233.77642822265625,-2.036050796508789,1,-1,2.2325128930750244,5.0,0.0,45.0,0,0
1478,0.45,233.48158264160156,-2.0207135677337646,-0.004114551469683647,-179.8077392578125,0.057954151183366776,0.005640670657157898,5.93114085341892,0.8500000238418579,0.0,-0.0016771078808233142,2,-1.3477611541748047,0.0013635680079460144,-0.004498290829360485,-2.7327989638752733e-05,0.002095543007362869,2.7958836555480957,1.5598430633544922,-0.027494803071022034,9.80998706817627,3.96368996007368e-05,0.0001446646056137979,-0.0044367569498717785,4.715744495391846,233.480712890625,-2.0360825061798096,1,-1,2.5282140488520266,5.0,0.0,45.0,0,0
1479,0.5,233.182373046875,-2.021495819091797,-0.004106998443603516,-179.8166961669922,0.05713452771306038,0.005304424557834864,6.009978384950494,0.8500000238418579,0.0,-0.001494868891313672,2,-1.5767574310302734,0.0011066347360610962,-0.0036979676224291325,-9.522622334150723e-06,0.0021005993422049387,2.795891284942627,1.4497308731079102,-0.019577205181121826,9.810511589050293,0.00014555365487467498,0.0004995375056751072,-0.004745346028357744,4.715588092803955,233.1815185546875,-2.036114454269409,1,-1,2.827424666132933,5.0,0.0,45.0,0,0
1480,0.55,232.88072204589844,-2.0222601890563965,-0.004087924957275391,-179.82449340820312,0.05430683121085167,0.004719863645732403,6.061050365404374,0.8500000238418579,0.0,-0.0014079684624448419,2,-1.0214519500732422,0.0043131038546562195,-0.00279579171910882,-4.311999394453461e-06,0.002094816548815991,2.7959108352661133,1.0292612314224243,-0.01580783724784851,9.813793182373047,0.0002188546786783263,0.0011044017737731338,-0.004162352532148361,4.715452194213867,232.87986755371094,-2.036146640777588,1,-1,3.129076635547364,5.0,0.0,45.0,0,0
1481,0.6000000000000001,232.576416015625,-2.0229668617248535,-0.004061603453010321,-179.82664489746094,0.050126753747463226,0.003951078746467829,6.101518763643264,0.8500000238418579,0.0,-0.001158227096311748,2,-0.8093738555908203,0.0017806701362133026,-0.0018205639207735658,-2.227411171849478e-05,0.0020923151652026575,2.7959370613098145,1.0884991884231567,-0.03050655499100685,9.811705589294434,0.00029313284903764725,0.0016874929424375296,0.001625541364774108,4.715414524078369,232.5755615234375,-2.0361790657043457,1,-1,3.433383486352663,5.0,0.0,45.0,0,0
1482,0.65,232.2694854736328,-2.023646831512451,-0.004032154101878405,-179.82766723632812,0.045297812670469284,0.003138909814879298,6.177277601264341,0.8500000238418579,0.0,-0.0013496332103386521,2,-1.51519775390625,0.00808747485280037,-0.0009614945156499743,-1.4194769062772636e-05,0.002091493744122462,2.795966625213623,1.077716588973999,-0.01539609208703041,9.81055736541748,0.00027435182710178196,0.0014921168331056833,-0.002104556653648615,4.715396881103516,232.26861572265625,-2.0362117290496826,1,-1,3.74031478154188,5.0,0.0,45.0,0,0
1483,0.7000000000000001,231.95965576171875,-2.0242602825164795,-0.004003925248980522,-179.82022094726562,0.04042105749249458,0.0022149079013615847,6.186665836660915,0.8500000238418579,0.0,-0.0009806097950786352,2,-0.18774032592773438,-0.011472497135400772,-0.00016841921024024487,-2.5298436206402827e-05,0.0020997459230416723,2.7959954738616943,1.156823754310608,-0.03297150135040283,9.808794975280762,0.0003507272922433913,0.0022247142624109983,0.0052878097631037235,4.715526580810547,231.95880126953125,-2.0362448692321777,1,-1,4.050145100760134,5.0,0.0,45.0,0,0
1484,0.75,231.64662170410156,-2.02487850189209,-0.00397974019870162,-179.8123016357422,0.03615901991724968,0.0013045178493484855,6.261762668874789,0.8500000238418579,0.0,-0.0014162251027300954,2,-1.5019416809082031,0.0006393156945705414,0.00047206878662109375,-2.192681003431977e-05,0.0020706346760460057,2.7960195541381836,1.2961899042129517,-0.0021835495717823505,9.8073091506958,0.00030589784728363156,0.00181194965261966,0.0018592685228213668,4.715664863586426,231.645751953125,-2.036278247833252,1,-1,4.363179768845758,5.0,0.0,45.0,0,0
1485,0.8,231.33203125,-2.025534152984619,-0.003949603997170925,-179.8100128173828,0.03133007511496544,0.0005605357582680881,6.3091589271826125,0.8500000238418579,0.0,-0.0017760171322152019,2,-0.9479427337646484,0.007177628576755524,0.0008722307393327355,-1.7566206888536343e-05,0.0020663386874842336,2.7960500717163086,0.6254227757453918,0.016129430383443832,9.812237739562988,0.00023394296295009553,0.0016584888799116015,0.00017844312242232263,4.715704917907715,231.3311767578125,-2.0363118648529053,1,-1,4.677770906181479,5.0,0.0,45.0,0,0
1486,0.8500000000000001,231.01571655273438,-2.0262162685394287,-0.003916797693818808,-179.81106567382812,0.026548944413661957,-3.051757266803179e-05,6.346689406209939,0.8500000238418579,0.0,-0.0016456834273412824,2,-0.7506084442138672,-0.0013530813157558441,0.0011962890857830644,-2.8720301184257028e-05,0.002077409620602826,2.7960827350616455,0.6845875978469849,0.01151297241449356,9.81062126159668,0.00018916060798801482,0.001549015985801816,-0.00039111729711294174,4.715686321258545,231.01486206054688,-2.0363457202911377,1,-1,4.994086338918919,5.0,0.0,45.0,0,0
1487,0.9,230.6978302001953,-2.0269217491149902,-0.003883533412590623,-179.8137969970703,0.022061510011553764,-0.0005187989445403218,6.369780647836799,0.8500000238418579,0.0,-0.0015619019977748394,2,-0.46181678771972656,-0.004312284290790558,0.00125961285084486,-3.222141046332037e-05,0.0020770090137580037,2.7961158752441406,0.6338106393814087,0.009213222190737724,9.809913635253906,0.00015109304513316602,0.001535135437734425,-0.0012086816132068634,4.715639114379883,230.69696044921875,-2.03637957572937,1,-1,5.311973474288426,5.0,0.0,45.0,0,0
1488,0.9500000000000001,230.3777313232422,-2.027667999267578,-0.00385736464522779,-179.82135009765625,0.018619094043970108,-0.0008239745511673391,6.4435940778419685,0.8500000238418579,0.0,-0.001669601653702557,2,-1.476278305053711,0.0030494295060634613,0.0012905120383948088,-2.083084106739504e-06,0.0020648452040848493,2.796142578125,0.873245120048523,0.01742825098335743,9.807061195373535,7.210921467049047e-05,0.0006659181672148407,-0.00401506619527936,4.7155070304870605,230.37686157226562,-2.0364136695861816,1,-1,5.632073221111104,5.0,0.0,45.0,0,0
1489,1.0,230.05357360839844,-2.0283639430999756,-0.003852786961942911,-179.83453369140625,0.01777215115725994,-0.0005798339261673391,6.473225727668175,0.8500000238418579,0.0,-0.003035830333828926,2,-0.5927467346191406,0.061361510306596756,0.0011638641590252519,-9.147426670288797e-06,0.0020465821009092275,2.796147108078003,1.5730056762695312,-0.014043876901268959,9.800684928894043,-0.00017537556414026767,0.0006536248256452382,-0.00864571426063776,4.715276718139648,230.05270385742188,-2.0364482402801514,1,-1,5.956231683025242,5.0,0.0,45.0,0,0
1490,1.05,229.72604370117188,-2.0290400981903076,-0.0038598058745265007,-179.8553924560547,0.018482491374015808,5.210257586441003e-05,6.560643320934996,0.8500000238418579,0.0,-0.002372897230088711,2,-1.7483901977539062,0.02439165487885475,0.00095367431640625,-3.1185428593870484e-05,0.0020566992802829994,2.79613995552063,1.323157548904419,-0.0038090511225163937,9.804965019226074,-0.00024832694907672703,-0.00018143125635106117,-0.00800387840718031,4.7149128913879395,229.72518920898438,-2.0364832878112793,1,-1,6.283762288180771,5.0,0.0,45.0,0,0
1491,1.1,229.3972930908203,-2.0296473503112793,-0.0038605688605457544,-179.8730926513672,0.018707886338233948,0.0007013638969510794,6.579819187160157,0.8500000238418579,0.0,-0.001774429576471448,2,-0.3835296630859375,0.008863937109708786,0.0007642746204510331,-3.235291143465682e-05,0.0020559984161904812,2.7961394786834717,0.49314242601394653,-0.02831472083926201,9.812417030334473,-0.00022290121705736965,6.887266499688849e-05,-0.005174054764211178,4.714603900909424,229.39642333984375,-2.0365183353424072,1,-1,6.612513459375131,5.0,0.0,45.0,0,0
1492,1.1500000000000001,229.06581115722656,-2.0301756858825684,-0.0038674352690577507,-179.88534545898438,0.019739245995879173,0.0012947511859238148,6.6529513962748945,0.8500000238418579,0.0,-0.0015173139981925488,2,-1.4626598358154297,0.011434908956289291,0.0005315780290402472,-2.6581641783703816e-05,0.0020594055717083797,2.7961320877075195,1.0933115482330322,-0.03513720631599426,9.806967735290527,-0.00020231332746334374,-0.00047401429037563503,-0.003987201023846865,4.714390277862549,229.06495666503906,-2.0365536212921143,1,-1,6.943995814014902,5.0,0.0,45.0,0,0
1493,1.2000000000000002,228.73260498046875,-2.03070068359375,-0.0038705633487552404,-179.89906311035156,0.02050422690808773,0.001762689440511167,6.675165965205833,0.8500000238418579,0.0,-0.001189148286357522,2,-0.44429779052734375,0.00510023906826973,0.0002515793312340975,-1.178094204192297e-05,0.0020347464212390164,2.796128988265991,0.6835038661956787,-0.005171572789549828,9.811396598815918,-0.00015131615509744734,-0.00018913393432740122,-0.00802983995527029,4.714150428771973,228.7317352294922,-2.0365893840789795,1,-1,7.277202404364125,5.0,0.0,45.0,0,0
1494,1.25,228.39707946777344,-2.0311834812164307,-0.0038759803865104914,-179.9099578857422,0.021494604647159576,0.0020894764456897974,6.721438208153459,0.8500000238418579,0.0,-0.0009806097950786352,2,-0.9254550933837891,0.008461661636829376,0.00014362332876771688,-2.4626588125665492e-05,0.002078746319279949,2.796123504638672,0.9336474537849426,-0.02166285179555416,9.80871295928955,-0.00010982716776197776,-0.00024145083443727344,-0.008291296660900116,4.713960647583008,228.39620971679688,-2.0366251468658447,1,-1,7.612728264415175,5.0,0.0,45.0,0,0
1495,1.3,228.05966186523438,-2.031585454940796,-0.003878650488331914,-179.91493225097656,0.022245924919843674,0.0023012442979961634,6.7657563189469565,0.8500000238418579,0.0,-0.0009459785069338977,2,-0.8863735198974609,0.010171672329306602,-7.553098839707673e-05,-2.2324785601976804e-05,0.0020452901776105703,2.7961208820343018,0.7637572884559631,-0.03605368360877037,9.810796737670898,-6.043578832759522e-05,-0.0002592748496681452,-0.000850815384183079,4.713873863220215,228.0587921142578,-2.036661148071289,1,-1,7.950146106394647,5.0,0.0,45.0,0,0
1496,1.35,227.7197265625,-2.0319571495056152,-0.0038841436617076397,-179.9176483154297,0.02322947233915329,0.002353084972128272,6.807982590805619,0.8500000238418579,0.0,-0.0006732309120707214,2,-0.8445262908935547,0.00040850602090358734,-0.00020389561541378498,-2.5852853466378922e-05,0.002043353047538859,2.7961153984069824,1.013953447341919,-0.017088619992136955,9.80849552154541,8.169908142008353e-06,-0.00019806371710728854,0.0005892651388421655,4.7138261795043945,227.71885681152344,-2.0366973876953125,1,-1,8.290081612339467,5.0,0.0,45.0,0,0
1497,1.4000000000000001,227.37808227539062,-2.0323524475097656,-0.003885364392772317,-179.9227294921875,0.02368026413023472,0.0022395297419279814,6.857244629839729,0.8500000238418579,0.0,-0.0005661552422679961,2,-0.9852409362792969,-0.0003452785313129425,-0.0002231597318314016,-2.0794873777406144e-05,0.0020416426325053395,2.796114206314087,0.6940628290176392,0.004936032462865114,9.811432838439941,5.3290623327484354e-05,-0.0002768745180219412,-0.004306203220039606,4.713737487792969,227.37721252441406,-2.036733865737915,1,-1,8.631726128137664,5.0,0.0,45.0,0,0
1498,1.4500000000000002,227.03431701660156,-2.0327279567718506,-0.003885898506268859,-179.92489624023438,0.024035435169935226,0.001970746787264943,6.885424470404982,0.8500000238418579,0.0,-0.0003670363512355834,2,-0.5635929107666016,-0.004114825278520584,-0.00030975346453487873,1.5796275348446378e-07,0.0020390654921976508,2.7961137294769287,0.8541002869606018,-0.012389113195240498,9.809955596923828,0.00011265962530160323,1.3835490335623035e-06,-0.00045556691475212574,4.713699817657471,227.033447265625,-2.0367705821990967,1,-1,8.975491592018953,5.0,0.0,45.0,0,0
1499,1.5,226.68882751464844,-2.033078193664551,-0.0038830756675451994,-179.9259490966797,0.023939812555909157,0.0016817082650959492,6.929791161893681,0.8500000238418579,0.0,-0.0006948008667677641,2,-0.8873462677001953,0.01218460500240326,-0.00033798220101743937,-2.1493572216759706e-05,0.00202169621734727,2.796116590499878,0.7040852904319763,-0.011739559471607208,9.810956954956055,9.823133586905897e-05,-1.613142558198888e-05,0.0024604827631264925,4.713681697845459,226.68795776367188,-2.0368075370788574,1,-1,9.320981271496791,5.0,0.0,45.0,0,0
1500,1.55,226.34088134765625,-2.033468723297119,-0.0038837622851133347,-179.93185424804688,0.024124227464199066,0.0013703672448173165,6.9747227162668315,0.8500000238418579,0.0,-0.0003670363512355834,2,-0.8986282348632812,-0.0034377072006464005,-0.00029907224234193563,-1.1057738215071279e-05,0.00203793698740856,2.7961158752441406,0.9841475486755371,0.014303077012300491,9.808259010314941,0.00011514261859701946,-2.8652373657678254e-05,-0.0028659054078161716,4.713578224182129,226.3400115966797,-2.036844491958618,1,-1,9.668927657651253,5.0,0.0,45.0,0,0
1501,1.6,225.99107360839844,-2.033836841583252,-0.0038823126815259457,-179.9355926513672,0.024008113890886307,0.001042666262947023,7.01463524876955,0.8500000238418579,0.0,-0.00043982735951431096,2,-0.7982540130615234,0.003191279247403145,-0.0002738952462095767,-1.1638611607328868e-05,0.0020237584473255794,2.796117067337036,0.7440996766090393,-0.010307086631655693,9.810392379760742,0.00011466220894362777,2.677175507415086e-05,0.0013447875389829278,4.713512897491455,225.99020385742188,-2.036881923675537,1,-1,10.018735590602658,5.0,0.0,45.0,0,0
1502,1.6500000000000001,225.6384735107422,-2.034176826477051,-0.003886279882863164,-179.93780517578125,0.024417925626039505,0.0007700668065808713,7.060179563942376,0.8500000238418579,0.0,-0.00043982735951431096,2,-0.9108924865722656,0.006438782438635826,-0.00019950864952988923,-2.420652551293805e-05,0.0020272942772775132,2.7961132526397705,1.1141678094863892,-0.011570977047085762,9.8074951171875,8.621758024673909e-05,2.3818549379939213e-05,-0.0005908946041017771,4.713474273681641,225.63760375976562,-2.036919593811035,1,-1,10.371335852169386,5.0,0.0,45.0,0,0
1503,1.7000000000000002,225.28440856933594,-2.0344717502593994,-0.0038839911576360464,-179.94009399414062,0.024124227464199066,0.0006729073356837034,7.094648209257296,0.8500000238418579,0.0,-0.000890448922291398,2,-0.68939208984375,0.024008527398109436,-0.00015888214693404734,-7.813063039703721e-06,0.0020291524981836196,2.7961156368255615,0.6041161417961121,-0.015195637010037899,9.812246322631836,5.877672265341971e-06,0.00017119362019002438,-0.00039650252438150346,4.71343469619751,225.28353881835938,-2.036957263946533,1,-1,10.725400916406242,5.0,0.0,45.0,0,0
1504,1.75,224.92843627929688,-2.034740924835205,-0.003880786709487438,-179.94515991210938,0.023652944713830948,0.0007474958547390997,7.158241492016023,0.8500000238418579,0.0,-0.0009267422719858587,2,-1.2718772888183594,0.017832061275839806,-0.00011558531696209684,-3.329438706809621e-05,0.002029717850425569,2.79611873626709,0.7740437984466553,-0.007896129973232746,9.8099946975708,-4.501869261730462e-05,-0.00019898983009625226,-0.0024754912592470646,4.713346004486084,224.9275665283203,-2.0369954109191895,1,-1,11.081373308215785,5.0,0.0,45.0,0,0
1505,1.8,224.5680389404297,-2.0350241661071777,-0.003895892994478345,-179.95350646972656,0.025141924619674683,0.0008399282232858241,7.233467745395525,0.8500000238418579,0.0,-0.0005190677475184202,2,-1.504526138305664,0.0014718156307935715,2.6702764444053173e-06,-1.8200316008904074e-05,0.0020140775001316344,2.7961037158966064,1.7343053817749023,0.004390189424157143,9.801974296569824,-3.389873745618388e-05,-0.0005990124773234129,-0.005097141023725271,4.713200569152832,224.56802368164062,-2.037033796310425,1,-1,11.441770758384578,5.0,0.0,45.0,0,0
1506,1.85,224.20501708984375,-2.035240650177002,-0.00391107564792037,-179.95521545410156,0.026610415428876877,0.0008750503184273839,7.272951276606577,0.8500000238418579,0.0,-0.0003670363512355834,2,-0.7896709442138672,0.0003591831773519516,1.3351382222026587e-06,-2.873354907131022e-06,0.002011218966768401,2.796088457107544,1.0545339584350586,-0.028704799711704254,9.809432983398438,-3.2839650430105394e-06,-0.00036191611434333026,-0.0005186692578718066,4.713170528411865,224.20501708984375,-2.0370724201202393,1,-1,11.80479267351945,5.0,0.0,45.0,0,0
1507,1.9000000000000001,223.84056091308594,-2.035440683364868,-0.003915500361472368,-179.955810546875,0.026965584605932236,0.0008697020821273327,7.305208725542948,0.8500000238418579,0.0,-0.00043982735951431096,2,-0.6451511383056641,0.003851042129099369,5.702975613530725e-05,-3.243212023330552e-05,0.002015572811893774,2.79608416557312,0.6046128273010254,-0.008033538237214088,9.814092636108398,7.303184702323051e-06,-6.171713175717741e-05,0.0011188123608008027,4.713160514831543,223.84054565429688,-2.037111282348633,1,-1,12.169248905171756,5.0,0.0,45.0,0,0
1508,1.9500000000000002,223.47434997558594,-2.0356287956237793,-0.003913822118192911,-179.9559783935547,0.026706038042902946,0.0008414057083427906,7.33690018556818,0.8500000238418579,0.0,-0.00043982735951431096,2,-0.6338310241699219,0.003418014384806156,4.673001967603341e-05,-2.6431247459707024e-05,0.0020201704090120347,2.796085834503174,0.704569399356842,-0.00591619499027729,9.812017440795898,1.477285877626855e-05,0.00019384264305699617,0.0014484645798802376,4.7131571769714355,223.47433471679688,-2.0371503829956055,1,-1,12.535459890985742,5.0,0.0,45.0,0,0
1509,2.0,223.10618591308594,-2.0358235836029053,-0.003908862825483084,-179.95945739746094,0.0261254720389843,0.0008608667994849384,7.375792163791344,0.8500000238418579,0.0,-0.0006948008667677641,2,-0.7778453826904297,0.012686890549957752,7.610320608364418e-05,-1.537264111380211e-05,0.0020169755071746164,2.796090602874756,0.8044758439064026,0.002958458848297596,9.810962677001953,-1.9965831597801298e-05,0.0002946252061519772,-0.003506031120195985,4.713096618652344,223.10617065429688,-2.0371897220611572,1,-1,12.90362400501488,5.0,0.0,45.0,0,0
1510,2.0500000000000003,222.7361602783203,-2.036001443862915,-0.003900394309312105,-179.96180725097656,0.025182906538248062,0.0008460525423288345,7.415208052711716,0.8500000238418579,0.0,-0.0003670363512355834,2,-0.7883167266845703,-0.0026919832453131676,6.27517729299143e-05,-3.675596488392269e-05,0.0019913675495198606,2.7960991859436035,0.7543073296546936,-0.008144750259816647,9.811153411865234,1.4409322830033489e-05,0.00034181936644017696,-0.0013489846605807543,4.713055610656738,222.73614501953125,-2.037229299545288,1,-1,13.273649682526557,5.0,0.0,45.0,0,0
1511,2.1,222.36431884765625,-2.0362019538879395,-0.0038907050620764494,-179.96258544921875,0.024131057783961296,0.0006437325500883162,7.454520454313023,0.8500000238418579,0.0,0.00017573311924934387,2,-0.7862377166748047,-0.02108653075993061,6.198883784236386e-05,-4.785899761915875e-06,0.0019900447308920113,2.7961089611053467,0.7341351509094238,0.00488190446048975,9.810161590576172,0.00010054281301563606,0.0003515156276989728,0.0010799012379720807,4.713042259216309,222.36431884765625,-2.037268877029419,1,-1,13.645491167251658,5.0,0.0,45.0,0,0
1512,2.15,221.99066162109375,-2.0364198684692383,-0.0038797950837761164,-179.96217346191406,0.02298358455300331,0.00034493659040890634,7.486960774327223,0.8500000238418579,0.0,0.0,2,-0.6488037109375,-0.004838872700929642,6.580352783203125e-05,-7.215462208419716e-06,0.001988064244256052,2.7961199283599854,0.7239383459091187,0.004465521778911352,9.810179710388184,0.00010833339183591306,0.00042722822399809957,0.002144451951608062,4.713049411773682,221.99066162109375,-2.037308692932129,1,-1,14.01914845735737,5.0,0.0,45.0,0,0
1513,2.2,221.61512756347656,-2.0366225242614746,-0.0038691137451678514,-179.9652099609375,0.021856604143977165,0.0002683060010895133,7.52500732844695,0.8500000238418579,0.0,-0.000870533986017108,2,-0.7609462738037109,0.030888495966792107,5.016326758777723e-05,-2.1137060516706397e-05,0.0020051409814526543,2.796130657196045,0.7537411451339722,-0.0022200369276106358,9.809635162353516,-1.8109876691596583e-05,0.0003808459732681513,-0.0032660518772900105,4.712996482849121,221.6151123046875,-2.037348747253418,1,-1,14.394682569655838,5.0,0.0,45.0,0,0
1514,2.25,221.2377471923828,-2.0368261337280273,-0.0038596533704549074,-179.96742248535156,0.02085256576538086,0.0001567615836393088,7.562400937739573,0.8500000238418579,0.0,0.0002485241857357323,2,-0.7478618621826172,-0.022665606811642647,4.272460864740424e-05,-1.5828939374278005e-05,0.001980860585073745,2.79613995552063,0.7535696029663086,-0.0008437552023679018,9.80918025970459,6.301398389041424e-05,0.00032814149744808674,-0.0017716194270178676,4.712957382202148,221.23773193359375,-2.037389039993286,1,-1,14.772062995676679,5.0,0.0,45.0,0,0
1515,2.3000000000000003,220.85848999023438,-2.0370395183563232,-0.0038517951034009457,-179.9679412841797,0.020046604797244072,-3.0517576306010596e-05,7.601565086004183,0.8500000238418579,0.0,0.0,2,-0.7832813262939453,-0.0032356008887290955,4.7874447773210704e-05,-3.4895568540642364e-06,0.0019738324844078043,2.796147584915161,0.7434331774711609,0.0020913193002343178,9.809038162231445,6.277472130022943e-05,0.00023163296282291412,0.000667635933496058,4.712948322296143,220.85848999023438,-2.0374295711517334,1,-1,15.151320257854294,5.0,0.0,45.0,0,0
1516,2.35,220.4774627685547,-2.0372464656829834,-0.0038454628083854914,-179.9672393798828,0.019384074956178665,-0.00018310548330191523,7.63462375079386,0.8500000238418579,0.0,0.0,2,-0.6611728668212891,-0.0009581446647644043,3.528594970703125e-05,-1.866527881915255e-05,0.001968205457738315,2.796154022216797,0.7033175230026245,-0.0023219860158860683,9.809293746948242,5.054477878729813e-05,0.00022064533550292253,0.0024856727104634047,4.712960720062256,220.47744750976562,-2.0374703407287598,1,-1,15.532347535733631,5.0,0.0,45.0,0,0
1517,2.4000000000000004,220.09458923339844,-2.037445545196533,-0.003840274643152952,-179.96990966796875,0.018899131566286087,-0.00015258786152116954,7.670735491990713,0.8500000238418579,0.0,-0.0006155604496598244,2,-0.7222461700439453,0.02362005040049553,-1.3542176020564511e-05,-1.5468050616581813e-05,0.0019652515110441487,2.796159505844116,0.7432357668876648,0.00018450035713613033,9.809364318847656,-5.084285294287838e-05,0.00015809245815034956,-0.002768489997833967,4.712913990020752,220.09457397460938,-2.037511110305786,1,-1,15.915221122646724,5.0,0.0,45.0,0,0
1518,2.45,219.70989990234375,-2.037642478942871,-0.0038371465634554625,-179.97206115722656,0.018598604947328568,-9.155274165095761e-05,7.7080383097013465,0.8500000238418579,0.0,0.00017573311924934387,2,-0.7460498809814453,-0.01469811424612999,-2.6702873583417386e-05,-8.344501057574138e-06,0.0019800288635129547,2.7961626052856445,0.7231839299201965,-0.0006479598814621568,9.808828353881836,1.6517242329427972e-06,8.174165850505233e-05,-0.001791594666428864,4.712876796722412,219.70989990234375,-2.0375521183013916,1,-1,16.299910504109487,5.0,0.0,45.0,0,0
1519,2.5,219.32342529296875,-2.037838935852051,-0.0038354683201760054,-179.97259521484375,0.0184346791356802,-9.155274165095761e-05,7.745062831141635,0.8500000238418579,0.0,0.0,2,-0.7404899597167969,-0.001131589524447918,-1.2016298569506034e-05,-1.5256508726396713e-05,0.0019702142323826093,2.7961645126342773,0.7131555080413818,-0.001730145886540413,9.809225082397461,1.843042468863132e-06,1.335487195319729e-05,0.0004400258185341954,4.712867259979248,219.32342529296875,-2.037593364715576,1,-1,16.68638516341702,5.0,0.0,45.0,0,0
1520,2.5500000000000003,218.9352264404297,-2.03802490234375,-0.0038347053341567516,-179.97193908691406,0.01836637780070305,-9.155271982308477e-05,7.777013768802511,0.845697283744812,0.0,0.0,2,-0.6390190124511719,0.0003657490015029907,-3.814693627646193e-07,-2.2693484002137713e-05,0.0019969942710600518,2.7961649894714355,0.6931421756744385,-0.004540974739938974,9.809388160705566,-2.3103621060727164e-06,2.7408210371504538e-05,0.0023122173734009266,4.712878704071045,218.93521118164062,-2.03763484954834,1,-1,17.074584060499664,5.0,0.0,45.0,0,0
1521,2.6,218.5453338623047,-2.0381996631622314,-0.00383447646163404,-179.97447204589844,0.01833905652165413,7.435374573105946e-05,7.8104280978125535,0.7999107241630554,0.0,-0.0006155604496598244,2,-0.6682968139648438,0.02466754987835884,6.6757183958543465e-06,-1.8994418224405064e-05,0.0019695639096144143,2.7961654663085938,0.6831393241882324,-0.0015656598843634129,9.809547424316406,-9.161236084764823e-05,2.1251458747428842e-05,-0.0026056638453155756,4.712834358215332,218.54531860351562,-2.0376765727996826,1,-1,17.46447667779102,5.0,0.0,45.0,0,0
1522,2.6500000000000004,218.15380859375,-2.0383338928222656,-0.0038340187165886164,-179.9770050048828,0.0182980764657259,0.00035730807576328516,7.843021190508933,0.7517041563987732,0.0,-0.00043982735951431096,2,-0.6518650054931641,0.01045802142471075,-1.926422191900201e-05,-2.7894300328828177e-05,0.0019392971696851834,2.796165943145752,0.6531274318695068,-0.01422832254320383,9.809948921203613,-0.00010353762627346441,2.9172335416660644e-05,-0.0017319376347586513,4.712790489196777,218.15380859375,-2.0377182960510254,1,-1,17.856001969355205,5.0,0.0,45.0,0,0
1523,2.7,217.7607421875,-2.0384716987609863,-0.003832645248621702,-179.9781036376953,0.01814781129360199,0.0004999550292268395,7.87440876420465,0.7047895193099976,0.0,0.00017573311924934387,2,-0.62774658203125,-0.015682922676205635,-2.8610202207346447e-06,-8.703590447119479e-06,0.001955167276895741,2.7961671352386475,0.6331065893173218,-0.0015763022238388658,9.81003475189209,-2.066792148980312e-05,4.591231481754221e-05,0.00015215176972560585,4.712771415710449,217.7607421875,-2.0377602577209473,1,-1,18.249068399762034,5.0,0.0,45.0,0,0
1524,2.75,217.36630249023438,-2.038614273071289,-0.0038294410333037376,-179.97784423828125,0.01781996339559555,0.0005220107268542051,7.898673600893085,0.659630537033081,0.0,0.0,2,-0.48529624938964844,-0.0014088395982980728,-3.814698175119702e-06,-3.212851193955779e-05,0.001964094491895105,2.796170473098755,0.5330511927604675,-0.0007630297914147377,9.810772895812988,1.711840923235286e-06,0.00015439995331689715,0.0018337847432121634,4.712775707244873,217.36630249023438,-2.037802219390869,1,-1,18.64350812279514,5.0,0.0,45.0,0,0
1525,2.8000000000000003,216.9705810546875,-2.0387794971466064,-0.0038244056049734354,-179.97967529296875,0.017287207767367363,0.0005027226870879531,7.9234348035812605,0.6250143647193909,0.0,0.0,2,-0.4952239990234375,-0.00023940112441778183,-3.4332288123550825e-06,-1.968740049617295e-05,0.0019508757004320734,2.796175479888916,0.5429626703262329,0.007847408764064312,9.810383796691895,8.887691365089267e-06,0.00022705839364789426,-0.002093968214467168,4.712743759155273,216.9705810546875,-2.037844657897949,1,-1,19.039229592834705,5.0,0.0,45.0,0,0
1526,2.85,216.57369995117188,-2.038933753967285,-0.003817233955487609,-179.98049926757812,0.016542717814445496,0.0004589385353028774,7.946578559155431,0.5893197655677795,0.0,0.0,2,-0.4628753662109375,0.000605299137532711,-1.5258774510584772e-06,-1.4506922194860789e-05,0.0019469520173462248,2.796182870864868,0.4528309106826782,-0.004919182974845171,9.810807228088379,1.742014501360245e-05,0.0002937261015176773,-0.00055512017570436,4.712729454040527,216.57369995117188,-2.03788685798645,1,-1,19.43611072632803,5.0,0.0,45.0,0,0
1527,2.9000000000000004,216.1757049560547,-2.0390799045562744,-0.003808689070865512,-179.98065185546875,0.01563430204987526,0.000402593519538641,7.96977332863855,0.5560559630393982,0.0,0.0,2,-0.4638957977294922,0.0010413816198706627,2.4795508579700254e-06,-1.880503559552681e-05,0.0019527012736236145,2.796191453933716,0.4626755118370056,-0.003896048292517662,9.810420989990234,2.0941746697644703e-05,0.00032149103935807943,0.00022528534464072436,4.712726593017578,216.17568969726562,-2.0379292964935303,1,-1,19.83410574827972,5.0,0.0,45.0,0,0
1528,2.95,215.77674865722656,-2.0391829013824463,-0.003798160469159484,-179.98074340820312,0.014541472308337688,0.0004873615689575672,7.986847082578355,0.5226390361785889,0.0,-0.0006155604496598244,2,-0.34148216247558594,0.025338642299175262,-4.76837158203125e-06,-2.03449764842513e-05,0.0019461898483188929,2.796201705932617,0.3824848532676697,-0.014507926069200039,9.810606002807617,-5.489065370056778e-05,0.00040379271376878023,0.00094860844546929,4.712724685668945,215.7767333984375,-2.0379719734191895,1,-1,20.233062060402965,5.0,0.0,45.0,0,0
1529,3.0,215.37689208984375,-2.0392684936523438,-0.003786716377362609,-179.9833221435547,0.013325698673725128,0.0006680809310637414,8.003871036632834,0.4983347952365875,0.0,-0.00043982735951431096,2,-0.3404808044433594,0.010290442034602165,-3.242489583499264e-06,-3.048361456237105e-06,0.001949334281465796,2.796213388442993,0.372280091047287,-0.005378305446356535,9.810382843017578,-6.676098564639688e-05,0.0004431470006238669,-0.0022862458135932684,4.712679862976074,215.37689208984375,-2.0380146503448486,1,-1,20.63291863694661,5.0,0.0,45.0,0,0
1530,3.0500000000000003,214.9762420654297,-2.039355993270874,-0.003774356795474887,-179.98414611816406,0.012034792453050613,0.0007010981789790094,8.019088009752855,0.4738123118877411,0.0,0.00017573311924934387,2,-0.3043365478515625,-0.015865374356508255,1.9073468138230965e-06,-9.60981127045986e-06,0.0019466466294934075,2.7962255477905273,0.3120598793029785,-0.0024713650345802307,9.810247421264648,1.7709518942865543e-05,0.0004694621602538973,0.0002117715048370883,4.712665557861328,214.97622680664062,-2.038057327270508,1,-1,21.033568670915376,5.0,0.0,45.0,0,0
1531,3.1,214.57484436035156,-2.039459228515625,-0.003761844476684928,-179.9847412109375,0.010723396204411983,0.0006142298807390034,8.03462434339892,0.4519771933555603,0.0,0.0,2,-0.3107261657714844,-0.002152028027921915,-2.2888161765877157e-06,-2.615573303992063e-05,0.0019460597753105187,2.7962379455566406,0.3118370473384857,0.003952935803681612,9.810020446777344,3.7028421502327546e-05,0.00045054760994389653,-0.00010008778917836025,4.712655067443848,214.5748291015625,-2.038100242614746,1,-1,21.434966389269007,5.0,0.0,45.0,0,0
1532,3.1500000000000004,214.1727752685547,-2.0395619869232178,-0.0037493323907256126,-179.98477172851562,0.009398339316248894,0.0004896621685475111,8.04652239370624,0.42958033084869385,0.0,0.0,2,-0.2379608154296875,-0.0007968209683895111,-6.294251306826482e-06,-5.8105455195859555e-06,0.0019208195031580238,2.796250581741333,0.2616088390350342,-0.0012466434855014086,9.809957504272461,4.648678077501245e-05,0.0004510390281211585,0.0005554879899136722,4.7126545906066895,214.17276000976562,-2.0381431579589844,1,-1,21.83703549419707,5.0,0.0,45.0,0,0
1533,3.2,213.77015686035156,-2.0396759510040283,-0.0037369728088378906,-179.98594665527344,0.008114264346659184,0.00035353630664758384,8.056427256411025,0.41261211037635803,0.0,0.0,2,-0.19809722900390625,-0.00012479722499847412,1.1444080882938579e-06,-3.3859114586510936e-05,0.0019214056178724528,2.7962629795074463,0.23139037191867828,0.0043362220749258995,9.809967994689941,4.699919372797012e-05,0.000446764548541978,-0.0014576930552721024,4.712634086608887,213.7701416015625,-2.0381860733032227,1,-1,22.239653918529378,5.0,0.0,45.0,0,0
1534,3.25,213.36705017089844,-2.039775848388672,-0.0037252234760671854,-179.98568725585938,0.006878000218421221,0.00022144039394333959,8.065156234066693,0.39843976497650146,0.0,0.0,2,-0.17457962036132812,0.0002466607838869095,-6.484985988208791e-06,-1.0858692640333425e-05,0.0019081742562028626,2.7962746620178223,0.1811760663986206,-0.005864093545824289,9.809587478637695,4.486224861466326e-05,0.00042842738912440836,0.0008028435986489058,4.712638854980469,213.36703491210938,-2.03822922706604,1,-1,22.642760620360722,5.0,0.0,45.0,0,0
1535,3.3000000000000003,212.96351623535156,-2.0398805141448975,-0.0037141607608646154,-179.98606872558594,0.005730528384447098,0.00010459969780640677,8.073586710018956,0.38592082262039185,0.0,0.0,2,-0.168609619140625,0.0003823311999440193,2.4795554054435343e-06,-3.6079503319928424e-06,0.0019164182009722142,2.796285629272461,0.18098172545433044,0.002360235434025526,9.809825897216797,3.8198228139663115e-05,0.0003863470919895917,-0.0003999776381533593,4.712632179260254,212.9635009765625,-2.0382721424102783,1,-1,23.046294569481326,5.0,0.0,45.0,0,0
1536,3.35,212.5596466064453,-2.0399792194366455,-0.0037043190095573664,-179.98585510253906,0.004685509484261274,7.795142664690502e-06,8.080409292221871,0.37378865480422974,0.0,0.0,2,-0.13645172119140625,0.00029692426323890686,-5.722063178836834e-07,-2.4551013375941467e-05,0.0019102968987538466,2.796295642852783,0.1208016499876976,-0.0021403199061751366,9.809521675109863,3.0696799512952566e-05,0.0003455938131082803,0.0005665093194693327,4.7126359939575195,212.55963134765625,-2.0383152961730957,1,-1,23.45016421044931,5.0,0.0,45.0,0,0
1537,3.4000000000000004,212.15545654296875,-2.040051221847534,-0.0036953925155103207,-179.98712158203125,0.0037497736047953367,8.013680053409189e-05,8.085629498522268,0.36403822898864746,0.0,-0.0006155604496598244,2,-0.10440826416015625,0.024454696103930473,-3.0517571758537088e-06,-1.6315127119133798e-05,0.0019021626021153517,2.79630446434021,0.1406402736902237,-0.007467036135494709,9.809599876403809,-5.5154076108010486e-05,0.0003098071028944105,-0.0013632779009640217,4.712613582611084,212.15545654296875,-2.038358449935913,1,-1,23.854354280339127,5.0,0.0,45.0,0,0
1538,3.45,211.75106811523438,-2.040079355239868,-0.0036876106169074774,-179.98797607421875,0.002936981152743101,0.000269817013759166,8.090122227334332,0.3565940856933594,0.0,-0.00043982735951431096,2,-0.08985519409179688,0.009759640321135521,1.907349087559851e-06,-2.8512874305505805e-05,0.0019070913695607018,2.796312093734741,0.07049965858459473,-0.015217130072414875,9.809450149536133,-7.112949970178306e-05,0.00026922416873276234,0.0003395220555830747,4.71259880065918,211.75106811523438,-2.0384016036987305,1,-1,24.258742709052125,5.0,0.0,45.0,0,0
1539,3.5,211.34642028808594,-2.040097236633301,-0.0036810492165386677,-179.98992919921875,0.0022471321281045675,0.00047945708502084017,8.09428501219086,0.3501565158367157,0.0,-0.00043982735951431096,2,-0.08325576782226562,0.0077699534595012665,-5.149840944795869e-06,-1.0374235741666093e-05,0.001897332031458916,2.796319007873535,0.10038401931524277,-0.0039277831092476845,9.809605598449707,-7.293248199857771e-05,0.00022171169985085726,-0.0012085993075743318,4.712564945220947,211.34640502929688,-2.038444757461548,1,-1,24.663390536595653,5.0,0.0,45.0,0,0
1540,3.5500000000000003,210.94158935546875,-2.0400924682617188,-0.003675708780065179,-179.9913787841797,0.0016870566178113222,0.000675540475640446,8.097676289962433,0.3441753387451172,0.0,-0.00043982735951431096,2,-0.0678253173828125,0.006693563424050808,-2.47955313170678e-06,-4.133638953474706e-05,0.0019007792134968983,2.7963240146636963,0.07028745114803314,-0.009344945661723614,9.809452056884766,-6.474488327512518e-05,0.00017778891196940094,2.2705806259182282e-05,4.7125396728515625,210.94158935546875,-2.0384879112243652,1,-1,25.068221469240925,5.0,0.0,45.0,0,0
1541,3.6,210.53668212890625,-2.040066957473755,-0.0036715888418257236,-179.9940643310547,0.0012430943315848708,0.0009012407972477376,8.100294212586492,0.3393267095088959,0.0,-0.0006948008667677641,2,-0.052356719970703125,0.016276642680168152,-4.005432856502011e-06,-6.580487565277619e-06,0.00187763472642741,2.79632830619812,0.04021201655268669,-0.007814686745405197,9.809530258178711,-8.448293374385685e-05,0.00014007461140863597,-0.0016559226205572486,4.7124924659729,210.53668212890625,-2.0385313034057617,1,-1,25.473128696607066,5.0,0.0,45.0,0,0
1542,3.6500000000000004,210.131591796875,-2.040053606033325,-0.003668231889605522,-179.9952392578125,0.0009015849209390581,0.0009190314449369907,8.102448463667221,0.3355923295021057,0.0,0.0002485241857357323,2,-0.043087005615234375,-0.024169903248548508,1.0108947208209429e-05,-2.4354566208728328e-05,0.0018803795540567835,2.7963316440582275,0.06015441194176674,0.0004626719746738672,9.809764862060547,3.590557025745511e-05,0.00010631433542585,0.0003614040033426136,4.712471961975098,210.131591796875,-2.038574457168579,1,-1,25.878219028858343,5.0,0.0,45.0,0,0
1543,3.7,209.72642517089844,-2.040072441101074,-0.0036659431643784046,-179.9966278076172,0.000655698124319315,0.0007608216837979853,8.104381562739373,0.3325108587741852,0.0,0.0,2,-0.038661956787109375,-0.004290092270821333,-1.0490416570974048e-05,-1.2574640968169561e-05,0.0018910018948888904,2.7963337898254395,0.030112817883491516,0.009477349929511547,9.809453964233398,6.499579467345029e-05,7.478173210984096e-05,-0.0009954751003533602,4.7124481201171875,209.72640991210938,-2.0386176109313965,1,-1,26.2833856552727,5.0,0.0,45.0,0,0
1544,3.75,209.32115173339844,-2.040088176727295,-0.003664264688268304,-179.99688720703125,0.0004849433898925781,0.0005529777845367789,8.105925563819818,0.3297366201877594,0.0,0.0,2,-0.030879974365234375,-0.0019018416060134768,4.196167537884321e-06,-1.1402453895750799e-05,0.0018893649288908329,2.7963356971740723,0.050082895904779434,-0.0024411396589130163,9.809844017028809,7.559145160485059e-05,4.941369843436405e-05,0.0005270384135656059,4.7124433517456055,209.32113647460938,-2.038661003112793,1,-1,26.688659093078183,5.0,0.0,45.0,0,0
1545,3.8000000000000003,208.9158172607422,-2.0401124954223633,-0.00366319646127522,-179.9977264404297,0.0003756603691726923,0.0003367752942722291,8.107155804693734,0.3275308907032013,0.0,0.0,2,-0.02460479736328125,-0.0006172619760036469,-8.964539119915571e-06,-2.300007579949366e-05,0.0018781324412981892,2.7963366508483887,0.010064451023936272,0.0033013192005455494,9.809687614440918,7.428821118082851e-05,2.9811793865519576e-05,-0.0008971974602900445,4.712428569793701,208.91580200195312,-2.0387041568756104,1,-1,27.093993566463954,5.0,0.0,45.0,0,0
1546,3.85,208.51043701171875,-2.040128231048584,-0.0036627387162297964,-179.9976348876953,0.0003210188588127494,0.00013775320257991552,8.108123784228054,0.32577356696128845,0.0,0.0,2,-0.019359588623046875,-5.9793819673359394e-05,5.149840944795869e-06,-2.3323955408034872e-05,0.0018769901373148123,2.796337127685547,0.020054830238223076,-0.0032275377307087183,9.809844017028809,6.575279985554516e-05,1.572892870171927e-05,0.0006655389443039894,4.712430477142334,208.51043701171875,-2.038747549057007,1,-1,27.499373815792797,5.0,0.0,45.0,0,0
1547,3.9000000000000004,208.10499572753906,-2.040149688720703,-0.003662433475255966,-179.99826049804688,0.00029369810363277793,-3.0517569030052982e-05,8.108982090753157,0.32439160346984863,0.0,0.0,2,-0.0171661376953125,0.00020986073650419712,-2.28881845032447e-06,-1.3634538029631693e-05,0.001880968330897934,2.796337604522705,0.03005036897957325,0.0030511904042214155,9.809844017028809,5.301243800204247e-05,4.915006684313994e-06,-0.0007980404770933092,4.712419509887695,208.10498046875,-2.038790702819824,1,-1,27.9048151005403,5.0,0.0,45.0,0,0
1548,3.95,207.69952392578125,-2.0401620864868164,-0.003662433475255966,-179.99798583984375,0.00029369810363277793,-0.00015258790517691523,8.109639171978504,0.3231603503227234,0.0,0.0,2,-0.013141632080078125,0.00023020256776362658,1.144409225162235e-06,-1.4431553476557854e-05,0.0018708070391587777,2.796337604522705,0.005050185602158308,-0.002864676294848323,9.809922218322754,3.9178135921247303e-05,-1.399800339640933e-06,0.0006953436532057822,4.712424278259277,207.69952392578125,-2.0388340950012207,1,-1,28.31028690248765,5.0,0.0,45.0,0,0
1549,4.0,207.29405212402344,-2.0401806831359863,-0.003662586212158203,-179.99851989746094,0.000300528306979686,-0.00024414055224042386,8.110189441678688,0.32222336530685425,0.0,0.0,2,-0.011005401611328125,0.00024203502107411623,-1.144409225162235e-06,-2.6198920480696868e-05,0.0018522002339818179,2.796337127685547,0.005051533691585064,0.00316667091101408,9.809922218322754,2.5051896955119446e-05,-4.653219093597727e-06,-0.000779326306656003,4.712414741516113,207.29403686523438,-2.038877248764038,1,-1,28.715758704671924,5.0,0.0,45.0,0,0
1550,4.05,206.8885040283203,-2.0401899814605713,-0.0036627387162297964,-179.99815368652344,0.00031418868456967175,-0.00030517575214616954,8.110595706703624,0.32143574953079224,0.0,0.0,2,-0.00812530517578125,0.00015482219168916345,-1.9073479506914737e-06,-3.011717973180493e-05,0.0018557070365650093,2.796337127685547,0.02505369484424591,-0.002995431190356612,9.810078620910645,1.241384325112449e-05,-5.1376041483308654e-06,0.0007272051298059523,4.712421417236328,206.88848876953125,-2.0389206409454346,1,-1,29.121306800481644,5.0,0.0,45.0,0,0
1551,4.1000000000000005,206.48294067382812,-2.0402066707611084,-0.0036627387162297964,-179.99859619140625,0.0003278490621596575,-0.00030517569393850863,8.110969546835928,0.32085734605789185,0.0,0.0,2,-0.007476806640625,0.00013628858141601086,-9.536745437799254e-07,-1.634738406455202e-05,0.0018470799140167327,2.796337127685547,0.015056225471198559,0.004036261234432459,9.8100004196167,1.4110972870184924e-06,-4.471836746233748e-06,-0.0007568161236122251,4.712413311004639,206.48294067382812,-2.038963794708252,1,-1,29.526870155317223,5.0,0.0,45.0,0,0
1552,4.15,206.07737731933594,-2.0402140617370605,-0.0036628912203013897,-179.99822998046875,0.00033467926550656557,-0.00030517569393850863,8.111233714541621,0.32032033801078796,0.0,0.0,2,-0.005283355712890625,5.564361345022917e-05,-3.8146970382513246e-06,-8.267846981850064e-06,0.0018486485590203303,2.7963368892669678,-0.004942804574966431,-0.003463219618424773,9.809844017028809,-7.281937087100232e-06,-2.003042254727916e-06,0.000732972112018615,4.7124199867248535,206.07736206054688,-2.0390071868896484,1,-1,29.932433509876756,5.0,0.0,45.0,0,0
1553,4.2,205.67181396484375,-2.040229558944702,-0.0036628912203013897,-179.99868774414062,0.0003415094397496432,-0.0002746581449173391,8.111476901407036,0.31994500756263733,0.0,0.0,2,-0.004863739013671875,6.011687219142914e-05,-9.536745437799254e-07,-4.589377763897248e-05,0.001843962366827423,2.7963368892669678,5.855711788171902e-05,0.0037189009599387646,9.81015682220459,-1.3447371202346403e-05,2.7632594878923555e-07,-0.0007529828581027687,4.712411880493164,205.67181396484375,-2.039050579071045,1,-1,30.33799686466503,5.0,0.0,45.0,0,0
1554,4.25,205.26625061035156,-2.040236473083496,-0.0036628912203013897,-179.99826049804688,0.0003278490621596575,-0.00021362301777116954,8.111635211332672,0.31959566473960876,0.0,0.0,2,-0.00316619873046875,7.698836270719767e-06,9.536745437799254e-07,-2.1501139009323637e-05,0.0018476226993716432,2.7963368892669678,0.005056050606071949,-0.002619824605062604,9.8100004196167,-1.7545220543979667e-05,3.2958141673589125e-06,0.00074041448533535,4.712419509887695,205.2662353515625,-2.0390937328338623,1,-1,30.743560219216153,5.0,0.0,45.0,0,0
1555,4.3,204.8606719970703,-2.0402514934539795,-0.0036627387162297964,-179.99871826171875,0.0003210188588127494,-0.00015258790517691523,8.11180019694033,0.31937167048454285,0.0,0.0,2,-0.003299713134765625,3.5023840609937906e-05,1.3351439065445447e-06,-1.0912511050143328e-05,0.0018418665436760336,2.796337127685547,-0.004944968968629837,0.003073114436119795,9.81015682220459,-1.9271918063168414e-05,5.432595116872108e-06,-0.0007477779872715473,4.712411403656006,204.86065673828125,-2.039137125015259,1,-1,31.149138832775538,5.0,0.0,45.0,0,0
1556,4.3500000000000005,204.45510864257812,-2.0402581691741943,-0.003662586212158203,-179.99832153320312,0.000300528306979686,-0.00012207030522404239,8.111896518045711,0.3191336691379547,0.0,0.0,2,-0.001926422119140625,3.867899067699909e-07,1.9073468138230965e-07,-1.6484947625483884e-05,0.0018400605341319265,2.796337127685547,5.134559978614561e-05,-0.0037290998734533787,9.809844017028809,-1.898188202176243e-05,7.59573231334798e-06,0.0007416072185151279,4.712418079376221,204.45510864257812,-2.039180278778076,1,-1,31.55470218732267,5.0,0.0,45.0,0,0
1557,4.4,204.04954528808594,-2.0402731895446777,-0.003662280971184373,-179.99871826171875,0.00028003775514662266,-6.103516352595761e-05,8.112008097884571,0.31899815797805786,0.0,0.0,2,-0.002231597900390625,4.042696673423052e-05,-2.86102294921875e-06,-3.141490008453091e-05,0.0018473603677294146,2.796337604522705,0.005048034712672234,0.0038384655490517616,9.810078620910645,-1.7458400179748423e-05,8.619222171546426e-06,-0.0007469638367183506,4.712411403656006,204.04953002929688,-2.0392236709594727,1,-1,31.960265542093,5.0,0.0,45.0,0,0
1558,4.45,203.64398193359375,-2.0402801036834717,-0.0036621284671127796,-179.99832153320312,0.0002527169999666512,0.0,8.11206150363003,0.3188367187976837,0.0,0.0,2,-0.001068115234375,1.1762604117393494e-05,-3.433226993365679e-06,-2.496010836050638e-05,0.0018359142013240695,2.796337842941284,-0.004956822842359543,-0.0032029796857386827,9.810078620910645,-1.5160148905124515e-05,9.659140232542995e-06,0.0007433521677739918,4.712418079376221,203.64398193359375,-2.03926682472229,1,-1,32.365828896644125,5.0,0.0,45.0,0,0
1559,4.5,203.23841857910156,-2.040295124053955,-0.0036618232261389494,-179.99871826171875,0.00022539623023476452,2.487011079210788e-05,8.112140658523325,0.31876254081726074,0.0,0.0,2,-0.001583099365234375,5.471694748848677e-05,-7.629398623976158e-07,-2.673797013709097e-05,0.0018270665464331232,2.7963380813598633,3.864531026920304e-05,0.002417617943137884,9.809922218322754,-1.2058088941557799e-05,9.400818271387834e-06,-0.0007457624305970967,4.712411403656006,203.2384033203125,-2.0393102169036865,1,-1,32.77139225141446,5.0,0.0,45.0,0,0
1560,4.55,202.8328399658203,-2.040301561355591,-0.003661517985165119,-179.99832153320312,0.00019807547505479306,5.4014904890209436e-05,8.112167361371352,0.3186472952365875,0.0,0.0,2,-0.0005340576171875,2.4179171305149794e-05,-1.5258785879268544e-06,-2.9990002490378247e-05,0.001816785182470446,2.7963383197784424,0.010033818893134594,-0.0032907892018556595,9.810078620910645,-8.647723916510586e-06,9.181016139336862e-06,0.0007436061860062182,4.712418079376221,202.83282470703125,-2.039353370666504,1,-1,33.1769708647468,5.0,0.0,45.0,0,0
1561,4.6000000000000005,202.42727661132812,-2.040315866470337,-0.003661365481093526,-179.99871826171875,0.0001707547198748216,7.332299719564617e-05,8.11222458174428,0.3186113238334656,0.0,0.0,2,-0.0011444091796875,6.402289727702737e-05,-3.43322744811303e-06,-3.0585677071639415e-05,0.0018318016502610016,2.7963383197784424,-0.009970699436962605,0.003034545574337244,9.809844017028809,-5.352112111722818e-06,7.87160297477385e-06,-0.0007455855375155807,4.712411403656006,202.42727661132812,-2.0393967628479004,1,-1,33.58253421949127,5.0,0.0,45.0,0,0
1562,4.65,202.02171325683594,-2.0403225421905518,-0.0036610602401196957,-179.99832153320312,0.000150264153489843,8.372366573894396e-05,8.112234118448127,0.3185274302959442,0.0,0.0,2,-0.00019073486328125,2.9579096008092165e-05,7.05719003235572e-06,-3.1534327952948286e-05,0.001821443487356253,2.7963387966156006,0.00502563314512372,-0.0032957305666059256,9.81015682220459,-2.5067542992474046e-06,6.901965662109433e-06,0.0007440096233040094,4.712418079376221,202.02169799804688,-2.039440155029297,1,-1,33.9880975740384,5.0,0.0,45.0,0,0
1563,4.7,201.61614990234375,-2.040337324142456,-0.0036609077360481024,-179.99874877929688,0.00013660377589985728,8.607013296568766e-05,8.112277987382654,0.31851598620414734,0.0,0.0,2,-0.00087738037109375,6.388407200574875e-05,-7.05719003235572e-06,-1.0459486179744615e-05,0.001797262554763521,2.7963390350341797,-0.0049765445291996,0.0030322473030537367,9.809922218322754,2.173452600118253e-07,5.278770004224498e-06,-0.0007453082362189889,4.712410926818848,201.61614990234375,-2.0394833087921143,1,-1,34.393660928799974,5.0,0.0,45.0,0,0
1564,4.75,201.21058654785156,-2.040343999862671,-0.0036609077360481024,-179.99832153320312,0.00012294339830987155,8.208877261495218e-05,8.112276080001337,0.3184511065483093,0.0,0.0,2,3.814697265625e-05,2.5119225028902292e-05,-1.3351440202313825e-06,-1.7931702434773513e-05,0.0018004170852443228,2.7963390350341797,2.0949821191607043e-05,-0.0034515548031777143,9.809922218322754,2.063834699583822e-06,4.051546511618653e-06,0.0007440681802108884,4.712418079376221,201.2105712890625,-2.0395267009735107,1,-1,34.7992242833471,5.0,0.0,45.0,0,0
1565,4.800000000000001,200.8049774169922,-2.040358781814575,-0.0036607549991458654,-179.99874877929688,0.00011611320951487869,7.31517284293659e-05,8.112311365879457,0.3184560537338257,0.0,0.0,2,-0.000705718994140625,5.55426231585443e-05,-6.103515261202119e-06,-3.4301747866067525e-05,0.0018149754184366435,2.7963390350341797,0.020019954070448875,0.003346413839608431,9.8100004196167,3.7938450532237766e-06,2.4227531412179815e-06,-0.0007452506106346846,4.712410926818848,200.80496215820312,-2.039569854736328,1,-1,35.20483341447583,5.0,0.0,45.0,0,0
1566,4.8500000000000005,200.3993682861328,-2.04036545753479,-0.0036607549991458654,-179.99832153320312,0.00010928302071988583,6.103651685407385e-05,8.112303736466455,0.3184034526348114,0.0,0.0,2,0.000152587890625,1.4448014553636312e-05,7.62939453125e-06,-1.8248274941247732e-05,0.0017871977391447995,2.7963390350341797,-0.004981386475265026,-0.0033696801401674747,9.8100004196167,4.474215984373586e-06,1.38385757963988e-06,0.0007441958878189325,4.712418079376221,200.39935302734375,-2.0396132469177246,1,-1,35.61044254539014,5.0,0.0,45.0,0,0
1567,4.9,199.99371337890625,-2.0404138565063477,-0.0036607549991458654,-179.9981231689453,0.00010928302071988583,-9.1552734375e-05,8.11233246722604,0.3184164762496948,0.0,0.0006155604496598244,2,-0.00057220458984375,-0.024133166298270226,3.8146970382513246e-07,-1.4198373796359901e-05,0.0017907263669556866,2.7963390350341797,0.025019165128469467,0.013842981308698654,9.8100004196167,8.23464579298161e-05,-1.3518455688199538e-08,-0.00039295494207181036,4.712421894073486,199.99371337890625,-2.039656400680542,1,-1,36.01609745550396,5.0,0.0,45.0,0,0
1568,4.95,199.58804321289062,-2.040452480316162,-0.0036607549991458654,-179.99705505371094,0.00010928302071988583,-0.00021362303232308477,8.112319021320952,0.31837356090545654,0.0,-0.00017573311924934387,2,0.00026702880859375,0.01462385430932045,-1.5258788153005298e-06,-1.0741503349213043e-05,0.0017828087749589044,2.7963390350341797,1.8542892576078884e-05,-0.003244674066081643,9.8100004196167,1.3593005860457197e-05,-4.340772647992708e-07,0.0008800787618383765,4.712440490722656,199.58804321289062,-2.0396997928619385,1,-1,36.42176762335827,5.0,0.0,45.0,0,0
1569,5.0,199.182373046875,-2.040484666824341,-0.0036607549991458654,-179.99717712402344,0.00010928302071988583,-0.00021362301777116954,8.112344762690228,0.3183947503566742,0.0,0.0,2,-0.000514984130859375,0.0020114111248403788,-2.6702878130890895e-06,-6.561654583888846e-06,0.0018028297597119896,2.7963390350341797,0.005018697585910559,-0.00019804463954642415,9.8100004196167,-1.1404846418372472e-06,-1.4152342373563442e-06,-0.0006534728454425931,4.712438106536865,199.182373046875,-2.039743185043335,1,-1,36.82743779065076,5.0,0.0,45.0,0,0
1570,5.050000000000001,198.77671813964844,-2.040505886077881,-0.0036607549991458654,-179.9965362548828,0.00011611320951487869,-0.0002136229886673391,8.112330454260762,0.31835582852363586,0.0,0.0,2,0.000286102294921875,0.0009641924407333136,-3.6239625842426904e-06,-1.0406624988380563e-05,0.0017920803488887798,2.7963390350341797,-0.004980376921594143,-0.004259995650500059,9.8100004196167,-9.62084777711425e-06,-1.4467698292719433e-06,0.0008062113774940372,4.712449550628662,198.77670288085938,-2.0397863388061523,1,-1,37.2330926984323,5.0,0.0,45.0,0,0
1571,5.1000000000000005,198.3710479736328,-2.040534257888794,-0.0036607549991458654,-179.99681091308594,0.00011611320951487869,-0.00015258787607308477,8.112353340996654,0.3183783292770386,0.0,0.0,2,-0.000457763671875,0.000449582003057003,-2.47955313170678e-06,-1.034954020119003e-05,0.0017884911263059736,2.7963390350341797,2.0101393602089956e-05,0.004010500852018595,9.8100004196167,-1.4320259651867673e-05,-1.9776332464971347e-06,-0.0007031836430542171,4.712444305419922,198.37103271484375,-2.039829730987549,1,-1,37.638762865440064,5.0,0.0,45.0,0,0
1572,5.15,197.96539306640625,-2.0405538082122803,-0.0036609077360481024,-179.99632263183594,0.00012294339830987155,-0.00012207030522404239,8.112336174456642,0.3183436095714569,0.0,0.0,2,0.00034332275390625,0.00012850621715188026,2.47955313170678e-06,-2.3572706560604882e-05,0.0017811092071549283,2.7963390350341797,2.079443947877735e-05,-0.003963474649935961,9.8100004196167,-1.569345658936072e-05,-1.5827524748601718e-06,0.0007726881303824484,4.712453365325928,197.96539306640625,-2.039872884750366,1,-1,38.04441777313774,5.0,0.0,45.0,0,0
1573,5.2,197.55972290039062,-2.0405819416046143,-0.0036609077360481024,-179.9966583251953,0.00012977358710486442,-9.155271982308477e-05,8.112359062552201,0.3183702528476715,0.0,0.0,2,-0.000457763671875,2.832384780049324e-05,-2.6702878130890895e-06,-3.56241194672273e-05,0.0017754803275883528,2.7963390350341797,2.240990761492867e-05,0.003296924289315939,9.8100004196167,-1.5268882634700276e-05,-1.7993066876442754e-06,-0.0007257570396177471,4.712447166442871,197.55972290039062,-2.0399162769317627,1,-1,38.450087940128896,5.0,0.0,45.0,0,0
1574,5.25,197.154052734375,-2.0405683517456055,-0.0036609077360481024,-179.99685668945312,0.00013660377589985728,0.00011001833627233282,8.112341911204279,0.3183353543281555,0.0,-0.0006155604496598244,2,0.00034332275390625,0.024114569649100304,1.7166138377433526e-06,-2.3638799930619235e-05,0.0017750232975020043,2.7963390350341797,2.266056435473729e-05,-0.013300083577632904,9.8100004196167,-9.091808897210285e-05,-1.3136676670910674e-06,0.00040523530333302915,4.712443828582764,197.154052734375,-2.039959669113159,1,-1,38.85575810637215,5.0,0.0,45.0,0,0
1575,5.300000000000001,196.7484588623047,-2.040564775466919,-0.0036609077360481024,-179.9978485107422,0.00012977358710486442,0.00023889163276180625,8.111974716244424,0.29911449551582336,0.0,0.00017573311924934387,2,0.007343292236328125,-0.014660308137536049,-4.19616708313697e-06,-3.1190197806711485e-06,0.001766441945460674,2.7963390350341797,-0.01997767947614193,0.0026160988491028547,9.8100004196167,-1.9868484741891734e-05,4.568958502204623e-06,-0.0008718143799342215,4.712426662445068,196.74844360351562,-2.0400028228759766,1,-1,39.26135197845823,5.0,0.0,45.0,0,0
1576,5.3500000000000005,196.34292602539062,-2.040534257888794,-0.003660297254100442,-179.99835205078125,6.147169915493578e-05,0.00041033554589375854,8.109168123875765,0.2154758721590042,0.0,-0.0006155604496598244,2,0.056133270263671875,0.02210504561662674,-1.9073468138230965e-07,-2.855046633436899e-05,0.0017536379289724204,2.796339750289917,-0.03498976305127144,-0.010225505568087101,9.810235023498535,-7.957688649185002e-05,4.450463529792614e-05,0.00030923221493139863,4.7124176025390625,196.34292602539062,-2.040046215057373,1,-1,39.666884816520565,5.0,0.0,45.0,0,0
