frame,sim_time,x,y,z,yaw,pitch,roll,speed_mps,throttle,brake,steer,gear,acc_x,acc_y,acc_z,gnss_lat,gnss_lon,gnss_alt,imu_acc_x,imu_acc_y,imu_acc_z,imu_gyro_x,imu_gyro_y,imu_gyro_z,imu_compass
5476,0.0,187.03663635253906,195.1884307861328,-0.003935871180146933,-179.5108642578125,-0.008305509574711323,-0.0028076162561774254,5.265979919679242,0.8500000238418579,0.0,-0.0014858662616461515,2,-1.6392326354980469,-0.011693909764289856,0.009950447827577591,0.0017598125993628442,0.001676953445095723,2.7960641384124756,0.928629457950592,0.0025413595139980316,9.813728332519531,0.00012143797357566655,-0.0032457453198730946,-0.002205646364018321,4.720926284790039
5477,0.05,186.77235412597656,195.1864776611328,-0.003958835732191801,-179.5094451904297,0.00089475471759215,-0.0029907221905887127,5.27838287708126,0.8500000238418579,0.0,-0.0014587424229830503,2,-0.24801254272460938,-0.007002502679824829,0.005971526261419058,0.0017615973261742657,0.0016641988061453755,2.796041250228882,1.2001948356628418,0.00023792870342731476,9.81138801574707,3.216126060578972e-05,-0.00285227014683187,0.0013669695472344756,4.720951080322266
5478,0.1,186.5045928955078,195.1845703125,-0.003980807960033417,-179.50694274902344,0.010962452739477158,-0.002899169921875,5.3541747742712715,0.8500000238418579,0.0,-0.0016365943010896444,2,-1.515817642211914,-0.008288547396659851,0.00239143380895257,0.0017546321435515067,0.001666797642949435,2.7960193157196045,1.3868260383605957,-0.011421921662986279,9.810126304626465,-6.469404615927488e-05,-0.0031371177174150944,0.007058707065880299,4.720994472503662
5479,0.15000000000000002,186.2346954345703,195.18251037597656,-0.003990421071648598,-179.50852966308594,0.019923660904169083,-0.0025939936749637127,5.395439046028436,0.8500000238418579,0.0,-0.001585820340551436,2,-0.8252525329589844,-0.007518604397773743,-0.000563240610063076,0.0017486165160723217,0.0016828567540142394,2.796009063720703,0.8587671518325806,0.03810889646410942,9.814388275146484,-0.00013548278366215527,-0.002652522874996066,-0.0035582862328737974,4.720966815948486
5480,0.2,185.9619903564453,195.18075561523438,-0.003996600862592459,-179.5215301513672,0.027983283624053,-0.0006713866023346782,5.506292940902306,0.8500000238418579,0.0,-0.008201349526643753,2,-2.2185420989990234,0.22352668642997742,-0.0028467178344726562,0.0017720960167570685,0.0016666690296417575,2.7960031032562256,1.1640830039978027,-0.08956911414861679,9.811074256896973,-0.0009516839636489749,-0.0031366602052003145,-0.007436404936015606,4.72074031829834
5481,0.25,185.6829376220703,195.17916870117188,-0.004026126582175493,-179.54542541503906,0.037484075874090195,0.0021412542555481195,5.60099680420303,0.8500000238418579,0.0,-0.0060515268705785275,2,-1.8943595886230469,0.05168810486793518,-0.0044727325439453125,0.0017392099431691088,0.0016818969775842416,2.795973062515259,2.505934953689575,-0.07019879668951035,9.798830032348633,-0.0009840285638347268,-0.002989832777529955,-0.013859155587852001,4.720323085784912
5482,0.30000000000000004,185.40005493164062,195.17774963378906,-0.004053592681884766,-179.563720703125,0.045468565076589584,0.004669421352446079,5.690702496572074,0.8500000238418579,0.0,-0.005507119931280613,2,-1.7942619323730469,0.02825126051902771,-0.005286788567900658,0.001746176514304805,0.001663330148242601,2.795945405960083,1.577168345451355,-0.08775175362825394,9.80960464477539,-0.0008073025965131819,-0.0026152918580919504,-0.001721054781228304,4.720003604888916
5483,0.35000000000000003,185.11358642578125,195.17630004882812,-0.004076404497027397,-179.5909423828125,0.05149279162287712,0.00668741762638092,5.77697954956637,0.8500000238418579,0.0,-0.005166877061128616,2,-1.7256546020507812,0.02282720059156418,-0.005540275014936924,0.001754807808740182,0.0016624457147130054,2.79592227935791,1.478814959526062,-0.006639746017754078,9.810470581054688,-0.0006437547272071242,-0.0021170335821807384,-0.008966655470430851,4.7195281982421875
5484,0.4,184.82431030273438,195.17494201660156,-0.004086628090590239,-179.6137237548828,0.05477811396121979,0.008034612983465195,5.826846496483523,0.8500000238418579,0.0,-0.0045915828086435795,2,-0.9974002838134766,0.013013146817684174,-0.005267906002700329,0.001759382558679738,0.0016773993975774386,2.795912027359009,1.1890188455581665,-0.05933031439781189,9.814094543457031,-0.0003924712655134499,-0.0011003295658156276,-0.007402185350656509,4.719130992889404
5485,0.45,184.53146362304688,195.173583984375,-0.004091816022992134,-179.63218688964844,0.0562397763133049,0.008708016015589237,5.862584889448693,0.8500000238418579,0.0,-0.004176717717200518,2,-0.7148170471191406,0.011105649173259735,-0.004625319968909025,0.0017448060668086443,0.0016556399610598062,2.7959065437316895,1.46950364112854,-0.025862842798233032,9.810433387756348,-0.0001423736975993961,7.347187056438997e-05,-0.0047960588708519936,4.718808174133301
5486,0.5,184.23760986328125,195.17236328125,-0.004072742536664009,-179.6463165283203,0.05407460406422615,0.008734547533094883,5.888415357159201,0.8500000238418579,0.0,-0.003834469709545374,2,-0.5166530609130859,0.010496564209461212,-0.003775977995246649,0.0017626073503055706,0.001660743741802169,2.7959258556365967,0.4838571548461914,-0.06942780315876007,9.819459915161133,6.106497312430292e-05,0.001142788678407669,-0.006732980255037546,4.718562126159668
5487,0.55,183.9393768310547,195.171142578125,-0.004062061198055744,-179.6611328125,0.05195724591612816,0.008260457776486874,5.956584853284652,0.8500000238418579,0.0,-0.0035954753402620554,2,-1.3634300231933594,0.008344687521457672,-0.002773475367575884,0.0017678138980080531,0.0016549919390872877,2.7959365844726562,1.7587722539901733,-0.026763152331113815,9.804890632629395,0.0002397778007434681,0.0014399425126612186,0.00035052988096140325,4.718303203582764
5488,0.6000000000000001,183.6365509033203,195.16995239257812,-0.004059925209730864,-179.67178344726562,0.050174567848443985,0.0074045006185770035,6.089202837785493,0.8500000238418579,0.0,-0.003326928475871682,2,-2.6523685455322266,-0.0023143738508224487,-0.0017896655481308699,0.001749847384770478,0.0016525052280486805,2.795938730239868,1.8284708261489868,-0.02669224701821804,9.805039405822754,0.0003260061494074762,0.0006303529953584075,-0.007737448904663324,4.7181172370910645
5489,0.65,183.3302459716797,195.1688232421875,-0.00405618641525507,-179.6778106689453,0.047886453568935394,0.006262242328375578,6.1711308341240665,0.8500000238418579,0.0,-0.003150908276438713,2,-1.6385746002197266,0.0012332946062088013,-0.0008630752563476562,0.001757922890018484,0.0016516903890569758,2.795943021774292,1.4230079650878906,-0.03902818262577057,9.809669494628906,0.00041211151983588934,0.0005722915520891547,-0.005348385311663151,4.718011856079102
5490,0.7000000000000001,183.020751953125,195.1676788330078,-0.004048175644129515,-179.68386840820312,0.045072417706251144,0.004997375421226025,6.197413559206703,0.8500000238418579,0.0,-0.0031046124640852213,2,-0.5256938934326172,0.010426156222820282,-6.103480700403452e-05,0.0017468144598606853,0.0016599464075269575,2.7959508895874023,1.2927533388137817,0.002054233103990555,9.810470581054688,0.0004422393685672432,0.0013369612861424685,-0.002399400807917118,4.717906475067139
5491,0.75,182.708251953125,195.16656494140625,-0.004037112928926945,-179.68605041503906,0.04202615097165108,0.0036721457727253437,6.305382432015597,0.8500000238418579,0.0,-0.002965085208415985,2,-2.1593666076660156,-0.006875619292259216,0.0005643843906000257,0.0017501817836792488,0.0016308406456046645,2.79596209526062,1.2120682001113892,-0.02723102644085884,9.810362815856934,0.00045365304686129093,0.0006078152800910175,-0.001980792498216033,4.717868328094482
5492,0.8,182.39247131347656,195.16539001464844,-0.004025287460535765,-179.6948699951172,0.03905501961708069,0.0024330520536750555,6.328501224210957,0.8500000238418579,0.0,-0.002970169298350811,2,-0.4623985290527344,0.0058904290199279785,0.0010076520266011357,0.0017545379473446494,0.0016265347839051275,2.795974016189575,1.3168015480041504,0.0176069475710392,9.809418678283691,0.00040487348451279104,0.0012063176836818457,-0.005010743159800768,4.717714309692383
5493,0.8500000000000001,182.0753631591797,195.16421508789062,-0.003998203203082085,-179.70388793945312,0.034881774336099625,0.0013460564659908414,6.350890067067058,0.8500000238418579,0.0,-0.002797408727928996,2,-0.4477977752685547,0.005512051284313202,0.001255035400390625,0.0017433797221040443,0.0016375987235505308,2.7960011959075928,0.5609685182571411,-0.0030987451318651438,9.815754890441895,0.00035312524414621294,0.001626785146072507,-0.0016741837607696652,4.717556953430176
5494,0.9,181.75418090820312,195.1630401611328,-0.00398332579061389,-179.71299743652344,0.032279472798109055,0.0004561986424960196,6.4222723417936,0.8500000238418579,0.0,-0.002605427522212267,2,-1.4276504516601562,-0.000856742262840271,0.0014062883565202355,0.0017398745975809324,0.0016371693200577832,2.796016216278076,1.6055539846420288,0.0019075386226177216,9.804253578186035,0.0002712206623982638,0.0012596584856510162,-0.006471360567957163,4.717398166656494
5495,0.9500000000000001,181.42857360839844,195.1618194580078,-0.003981113433837891,-179.72865295410156,0.03141886740922928,-0.00018310543964616954,6.537410580841199,0.8500000238418579,0.0,-0.002413193229585886,2,-2.3027706146240234,-0.0019635632634162903,0.001327896025031805,0.0017700088079909378,0.0016249571045921225,2.796018600463867,1.7404508590698242,0.01181446760892868,9.804047584533691,0.0001853030698839575,0.0002568053896538913,-0.005089624784886837,4.717124938964844
5496,1.0,181.10169982910156,195.16064453125,-0.003965396899729967,-179.73895263671875,0.029444944113492966,-0.000640869140625,6.553448279546532,0.8500000238418579,0.0,-0.0020837062038481236,2,-0.3207588195800781,0.0009808316826820374,0.0012157439487054944,0.0017629404073312247,0.0016066691814482052,2.796034097671509,0.534993052482605,-0.0123048210516572,9.8148832321167,0.00013592734467238188,0.0007343880133703351,0.0003567493986338377,4.716945171356201
5497,1.05,180.7721710205078,195.15963745117188,-0.003950672224164009,-179.74911499023438,0.027853509411215782,-0.00024414058134425431,6.631599545087992,0.8500000238418579,0.0,-0.0046613807789981365,2,-1.5633296966552734,0.10669056326150894,0.0009971618419513106,0.0017408997100099152,0.0016167673001828357,2.796048879623413,1.0544956922531128,-0.06455522030591965,9.809176445007324,-0.0002810684673022479,0.00018570131214801222,-0.0029041182715445757,4.71676778793335
5498,1.1,180.43911743164062,195.15884399414062,-0.003943729214370251,-179.7591552734375,0.027300264686346054,0.000669966742862016,6.666323631223289,0.8500000238418579,0.0,-0.0037136548198759556,2,-0.6945610046386719,0.034624431282281876,0.00075359339825809,0.0017397304295239983,0.0016160272177990639,2.796055793762207,1.3993661403656006,-0.07597783207893372,9.806286811828613,-0.0003459324943833053,0.00040713988710194826,-0.00386389484629035,4.716592788696289
5499,1.1500000000000001,180.10494995117188,195.1580352783203,-0.003925571218132973,-179.7711944580078,0.0257839635014534,0.0016285096062347293,6.695408943836252,0.8500000238418579,0.0,-0.0035643295850604773,2,-0.5817508697509766,0.02151722088456154,0.0005037307855673134,0.0017454988923616558,0.001619409553348625,2.796074151992798,0.45945292711257935,0.007904034107923508,9.814326286315918,-0.00032732324325479567,0.000594386481679976,-0.004517735447734594,4.7163825035095215
5500,1.2000000000000002,179.76918029785156,195.15733337402344,-0.0039042853750288486,-179.78440856933594,0.023973962292075157,0.0024752954486757517,6.730654012295558,0.8500000238418579,0.0,-0.003318979637697339,2,-0.7049369812011719,0.01849232241511345,0.000309181195916608,0.0017602979358704194,0.0015947258571646864,2.796095132827759,0.6639121770858765,-0.05290687084197998,9.81081485748291,-0.0002801520749926567,0.0006306672585196793,-0.004914899356663227,4.716151714324951
5501,1.25,179.43167114257812,195.1566619873047,-0.0038823126815259457,-179.7954864501953,0.022157132625579834,0.0031047759111970663,6.769113886537586,0.8500000238418579,0.0,-0.003034758847206831,2,-0.7692146301269531,0.009139589965343475,4.882807843387127e-05,0.001747450192176507,0.0016387068316933181,2.796117067337036,0.693771481513977,-0.007994335144758224,9.81004524230957,-0.00018141325563192368,0.0005370730650611222,0.0011336269089952111,4.715958595275879
5502,1.3,179.09054565429688,195.1559295654297,-0.003876590635627508,-179.8089599609375,0.022054679691791534,0.0034902857150882483,6.848118101224587,0.8500000238418579,0.0,-0.002781515009701252,2,-1.5800952911376953,0.005219336599111557,-8.144372259266675e-05,0.0017497491150382824,0.0016052168196811533,2.7961230278015137,1.4137822389602661,-0.0002983659505844116,9.803050994873047,-0.00010866089724004269,-0.00011293354327790439,-0.0080990856513381,4.715723037719727
5503,1.35,178.7457733154297,195.15524291992188,-0.003884601406753063,-179.81983947753906,0.02327045239508152,0.003653943073004484,6.919861223154045,0.8500000238418579,0.0,-0.002591949189081788,2,-1.4348793029785156,0.009328797459602356,-0.00019264218281023204,0.0017462182403606475,0.001603236494638456,2.7961151599884033,1.4389119148254395,-0.025137141346931458,9.803869247436523,-3.142490822938271e-05,-0.0005218042060732841,-0.0016341261798515916,4.715533256530762
5504,1.4000000000000001,178.39810180664062,195.1546173095703,-0.003896198235452175,-179.8324737548828,0.024861887097358704,0.003628356149420142,6.962214667833947,0.8500000238418579,0.0,-0.002358353231102228,2,-0.8470821380615234,0.007988810539245605,-0.0003269195440225303,0.0017512741010134373,0.0016014724629906736,2.7961034774780273,1.1591788530349731,-0.02899790368974209,9.808090209960938,1.8399854525341652e-05,-0.00037377182161435485,-0.00981483981013298,4.715312957763672
5505,1.4500000000000002,178.04904174804688,195.154052734375,-0.003899326315149665,-179.8408203125,0.02548343501985073,0.003391306148841977,7.000965671352954,0.8500000238418579,0.0,-0.002037178026512265,2,-0.7750225067138672,0.00105367973446846,-0.0003278732765465975,0.0017722252577427045,0.0015988480139054254,2.796100378036499,0.5742791295051575,-0.03216414153575897,9.813103675842285,0.00010812046093633398,-0.00021729145373683423,-0.0007225839071907103,4.715167045593262
5506,1.5,177.69671630859375,195.15341186523438,-0.003909320570528507,-179.85630798339844,0.026740189641714096,0.0030392773915082216,7.066240306063911,0.8500000238418579,0.0,-0.0018919572466984391,2,-1.3055038452148438,0.0067252106964588165,-0.0003082275507040322,0.0017505711216495982,0.0015814177175889651,2.7960903644561768,1.299648404121399,0.026231955736875534,9.806662559509277,0.00011806974362116307,-0.0004145281855016947,-0.00898136105388403,4.714897155761719
5507,1.55,177.34255981445312,195.15283203125,-0.003913364373147488,-179.86647033691406,0.027252452448010445,0.0026442641392350197,7.100627150730068,0.8500000238418579,0.0,-0.001752118463627994,2,-0.6877517700195312,0.010283198207616806,-0.0003402709844522178,0.0017610052565662244,0.001597602951259565,2.796086311340332,0.7546068429946899,-0.027200577780604362,9.811985969543457,0.00014259977615438402,-0.00012957293074578047,0.000116428142064251,4.714719772338867
5508,1.6,176.98648071289062,195.1521453857422,-0.00391260115429759,-179.88473510742188,0.027238793671131134,0.002260258886963129,7.136273917016147,0.8500000238418579,0.0,-0.001494868891313672,2,-0.7129478454589844,0.009107030928134918,-0.00027065275935456157,0.0017604213770982906,0.0015833679148976876,2.7960870265960693,0.7797637581825256,0.048054009675979614,9.811586380004883,0.00011535715020727366,8.998988778330386e-05,-0.01147801335901022,4.714400291442871
5509,1.6500000000000001,176.62857055664062,195.1515655517578,-0.003907795064151287,-179.89601135253906,0.026699207723140717,0.0018629147671163082,7.177473725160901,0.8500000238418579,0.0,-0.0011074531357735395,2,-0.8240032196044922,0.005125496536493301,-0.000202178955078125,0.0017478513248730839,0.0015868557504375841,2.7960917949676514,0.7444801926612854,-0.0516619011759758,9.811293601989746,0.00013894644507672638,0.00017159015987999737,-0.0002852785983122885,4.714203834533691
5510,1.7000000000000002,176.26858520507812,195.15093994140625,-0.0039019964169710875,-179.91246032714844,0.02597520872950554,0.0014695440186187625,7.2126717641492455,0.8500000238418579,0.0,-0.0007340727024711668,2,-0.7039642333984375,0.002406500279903412,-0.00013809202937409282,0.0017642419119697239,0.0015886606289831251,2.796097755432129,0.8444696664810181,0.01346493512392044,9.809931755065918,0.00012027886987198144,0.0003266228304710239,-0.009287013672292233,4.713916778564453
5511,1.75,175.9066162109375,195.1504669189453,-0.003894443390890956,-179.92222595214844,0.025114603340625763,0.0013055598828941584,7.261328543316453,0.8500000238418579,0.0,-0.0013896017335355282,2,-0.9731769561767578,0.038093507289886475,-9.098053851630539e-05,0.0017387590624075213,0.0015891719532300755,2.79610538482666,0.7992182374000549,-0.0613025538623333,9.810430526733398,1.4425235349335708e-05,0.00022264260041993111,-0.00012346669973339885,4.713746547698975
5512,1.8,175.5426788330078,195.15003967285156,-0.003886813996359706,-179.93605041503906,0.024185698479413986,0.0013818159932270646,7.2916614879541575,0.8500000238418579,0.0,-0.0011315717129036784,2,-0.6066799163818359,0.024459557607769966,-6.408688932424411e-05,0.0017538518800440752,0.0015734985553545332,2.7961130142211914,0.7941348552703857,-0.0061182500794529915,9.80966567993164,-5.5248558055609465e-05,0.00038324110209941864,-0.009100648574531078,4.713505268096924
5513,1.85,175.17662048339844,195.1497039794922,-0.0038801764603704214,-179.94029235839844,0.02335924655199051,0.001452477416023612,7.346682113123014,0.8500000238418579,0.0,-0.0006012359517626464,2,-1.1004161834716797,0.00451844185590744,3.1089766707737e-05,0.0017691776498588408,0.0015706114995968849,2.796119213104248,0.8539623618125916,-0.03613436222076416,9.809183120727539,-1.1088344763265923e-05,0.00012295192573219538,0.0017305876826867461,4.713431358337402
5514,1.9000000000000001,174.80856323242188,195.1493377685547,-0.003874073037877679,-179.94796752929688,0.022607924416661263,0.0014750879490748048,7.373025685476151,0.8500000238418579,0.0,-0.0005661552422679961,2,-0.5268764495849609,0.006924755871295929,5.016328941565007e-05,0.0017396172518685071,0.0015749328456481678,2.7961254119873047,0.7838793992996216,0.009039197117090225,9.80953598022461,-1.1995070963166654e-05,0.00031796915573067963,-0.0072876750491559505,4.713296890258789
5515,1.9500000000000002,174.43910217285156,195.1491241455078,-0.003864231053739786,-179.9487762451172,0.021494604647159576,0.0014739754842594266,7.401866831494801,0.8500000238418579,0.0,-0.0006220098002813756,2,-0.5768299102783203,0.010715276002883911,5.493162461789325e-05,0.0017456178825302694,0.0015795006862300302,2.796135425567627,0.5936222076416016,-0.06577978283166885,9.811416625976562,8.069066097959876e-06,0.0004140670644119382,0.004432387184351683,4.713283061981201
5516,2.0,174.0680694580078,195.14878845214844,-0.003853321075439453,-179.9550323486328,0.02027199976146221,0.001273909118026495,7.432482943753912,0.8500000238418579,0.0,0.0002485241857357323,2,-0.6123065948486328,-0.02320181578397751,7.62939453125e-05,0.00175667550756473,0.0015762798674089846,2.7961461544036865,0.6235023140907288,0.03929533809423447,9.810015678405762,9.868390043266118e-05,0.0004377456789370626,-0.00656912149861455,4.713173866271973
5517,2.0500000000000003,173.69544982910156,195.14849853515625,-0.003843021346256137,-179.95391845703125,0.019104037433862686,0.0009341033292002976,7.465387662629934,0.8500000238418579,0.0,0.0,2,-0.6580924987792969,-0.002708444371819496,0.00011749267287086695,0.0017352913074709427,0.0015506483239276381,2.796156644821167,0.6382586359977722,-0.0156706590205431,9.80963134765625,0.00012860551942139864,0.00039376027416437864,0.004627201706171036,4.713193416595459
5518,2.1,173.32110595703125,195.14816284179688,-0.00383447646163404,-179.9573211669922,0.01818196289241314,0.0006008727359585464,7.5047462560134095,0.8500000238418579,0.0,0.0,2,-0.7871723175048828,0.00028197653591632843,9.098053124034777e-05,0.001767260344144151,0.001549303290742038,2.7961654663085938,0.6931238174438477,0.014383118599653244,9.80915641784668,0.000106617204437498,0.00023189773492049426,-0.0046361349523067474,4.713133811950684
5519,2.15,172.94491577148438,195.1479034423828,-0.003828983288258314,-179.95285034179688,0.01760139688849449,0.0002898254315368831,7.537502118517556,0.8500000238418579,0.0,0.0,2,-0.6551170349121094,-0.0005318131297826767,5.626678466796875e-05,0.0017648302760451063,0.0015473000410407788,2.796170949935913,0.7279924154281616,-0.025646209716796875,9.808448791503906,0.00010921364446403459,0.0001782175386324525,0.006171452347189188,4.713212013244629
5520,2.2,172.56689453125,195.1476593017578,-0.0038263893220573664,-179.9546356201172,0.017321359366178513,0.00022510027338285,7.574818362348546,0.8500000238418579,0.0,-0.000870533986017108,2,-0.7463455200195312,0.030918242409825325,7.591247413074598e-05,0.0017509081378025645,0.001564354700806495,2.796173572540283,0.7329649329185486,-0.0006164539372548461,9.808685302734375,-2.2893449568073265e-05,6.170288543216884e-05,-0.004933755379170179,4.7131805419921875
5521,2.25,172.18702697753906,195.14749145507812,-0.0038262365851551294,-179.95169067382812,0.017335020005702972,0.00036325963446870446,7.61218909507266,0.8500000238418579,0.0,-0.0008176579140126705,2,-0.7474231719970703,0.0167783685028553,1.7547608877066523e-05,0.0017562166660432948,0.0015400525012504611,2.796173572540283,0.7329379320144653,-0.035677600651979446,9.808685302734375,-5.643844633596018e-05,-3.439017018536106e-05,0.0045141433365643024,4.713232040405273
5522,2.3000000000000003,171.80532836914062,195.1472625732422,-0.00382791506126523,-179.95489501953125,0.017546754330396652,0.0005166666815057397,7.6504709810520355,0.8500000238418579,0.0,-0.0005661552422679961,2,-0.7656383514404297,0.0012662773951888084,2.5558465495123528e-05,0.0017685558278777978,0.0015330030087880404,2.7961721420288086,0.7330275177955627,0.02933700941503048,9.809151649475098,-5.23522867297288e-05,-0.00012644351227208972,-0.004944539163261652,4.713176250457764
5523,2.35,171.4218292236328,195.14707946777344,-0.0038307378999888897,-179.95286560058594,0.0178882647305727,0.0005640392191708088,7.683363837080687,0.8500000238418579,0.0,-0.0003670363512355834,2,-0.6578540802001953,-0.006812051869928837,-8.583065209677443e-06,0.001753380253755509,0.0015273543160682905,2.7961690425872803,0.718041718006134,-0.025684669613838196,9.809229850769043,3.5618522815639153e-06,-0.00011688919767038897,0.004971763119101524,4.713211536407471
5524,2.4000000000000004,171.03656005859375,195.1468505859375,-0.0038341712206602097,-179.95765686035156,0.01829124614596367,0.0006101166363805532,7.718675331247818,0.8500000238418579,0.0,-0.0006948008667677641,2,-0.7062339782714844,0.008996240794658661,-1.964568582479842e-05,0.0017565772291332693,0.0015243792518313945,2.796165704727173,0.7131462097167969,0.01937086321413517,9.809617042541504,-2.7940774089074694e-05,-0.0001292398665100336,-0.005973225459456444,4.713128089904785
5525,2.45,170.6494903564453,195.146728515625,-0.003838138421997428,-179.95790100097656,0.018714716657996178,0.0007548314752057195,7.755539742437061,0.8500000238418579,0.0,-0.0009825967717915773,2,-0.7372951507568359,0.01947745308279991,-1.945496114785783e-05,0.0017637013400583527,0.001539135349630576,2.796161651611328,0.7231782078742981,-0.03565828129649162,9.80945110321045,-5.934079672442749e-05,-0.0001494509051553905,0.003430970013141632,4.713123798370361
5526,2.5,170.26068115234375,195.14657592773438,-0.003841724246740341,-179.96392822265625,0.019104037433862686,0.0009199741180054843,7.791561854559515,0.8306116461753845,0.0,-0.0007147158030420542,2,-0.7204437255859375,0.005361163057386875,-1.3351427696761675e-06,0.0017567897287748297,0.0015293000123381374,2.7961578369140625,0.6982769966125488,0.00940503366291523,9.809846878051758,-5.86892529099714e-05,-0.0001473310694564134,-0.005943558178842068,4.713018417358398
5527,2.5500000000000003,169.8701934814453,195.146484375,-0.0038441657088696957,-179.96389770507812,0.019363585859537125,0.0009432586957700551,7.821776774573008,0.7787590026855469,0.0,-0.00031118179322220385,2,-0.6042957305908203,-0.009495220147073269,2.8610202207346447e-06,0.0017493534648477078,0.0015560594819803615,2.7961552143096924,0.6832994222640991,-0.025589825585484505,9.810394287109375,1.9313532902742736e-05,-5.451450124382973e-05,0.004478283692151308,4.713018894195557
5528,2.6,169.47813415527344,195.1463165283203,-0.003844623453915119,-179.9695587158203,0.019418226554989815,0.0008858193177729845,7.852158908534761,0.7355077862739563,0.0,-0.00043982735951431096,2,-0.6076431274414062,0.0013585574924945831,2.098086042678915e-06,0.001753052802739511,0.0015286100598952326,2.7961549758911133,0.623335599899292,0.019518909975886345,9.81057071685791,1.7476380890002474e-05,2.6484858608455397e-05,-0.006237398367375135,4.712920188903809
5529,2.6500000000000004,169.08462524414062,195.1461944580078,-0.0038428686093539,-179.96847534179688,0.019233811646699905,0.0006563088390976191,7.881819514021267,0.6917313933372498,0.0,0.00017573311924934387,2,-0.5932044982910156,-0.020738989114761353,-1.5640256606275216e-05,0.0017441530149127338,0.0014983250820878133,2.796156883239746,0.6032906770706177,-0.005442398134618998,9.810657501220703,0.00011336077295709401,0.00010215842485195026,0.004413237329572439,4.712939262390137
5530,2.7,168.68972778320312,195.14601135253906,-0.00383867253549397,-179.97265625,0.018789850175380707,0.0004910810966975987,7.910177600993958,0.64903724193573,0.0,-0.0006155604496598244,2,-0.567169189453125,0.020032478496432304,1.9073468138230965e-07,0.0017633436562339156,0.001514178871196564,2.79616117477417,0.5532222390174866,0.009653455577790737,9.810834884643555,2.4796416255412623e-05,0.0001693187077762559,-0.005491780582815409,4.712866306304932
5531,2.75,168.29360961914062,195.1459197998047,-0.0038316536229103804,-179.9707794189453,0.01805901899933815,0.0004263872979208827,7.931889332553808,0.6082461476325989,0.0,-0.00043982735951431096,2,-0.4342365264892578,0.006595212034881115,-4.386902219266631e-06,0.0017399190668485704,0.0015230905908554262,2.796168088912964,0.5030768513679504,-0.030327986925840378,9.810935974121094,2.1602791093755513e-05,0.00030212983256205916,0.005167929921299219,4.712899208068848
5532,2.8000000000000003,167.89634704589844,195.14578247070312,-0.0038221930153667927,-179.9750518798828,0.017068641260266304,0.00040827514021657407,7.953783725118128,0.577285885810852,0.0,-0.00043982735951431096,2,-0.43788909912109375,0.004988373257219791,3.623963493737392e-06,0.0017523604182669236,0.001509857949574506,2.796177625656128,0.4579313397407532,0.019732050597667694,9.810880661010742,-3.4405275073368102e-06,0.0003874169779010117,-0.005930940620601177,4.71282434463501
5533,2.85,167.4980010986328,195.1457061767578,-0.0038109016604721546,-179.97303771972656,0.015880189836025238,0.0004074753378517926,7.974344894285134,0.5457352995872498,0.0,-0.00043982735951431096,2,-0.411224365234375,0.004478490445762873,-1.1825563888123725e-05,0.0017575415800629747,0.0015059208280514195,2.7961888313293457,0.44270962476730347,-0.020276684314012527,9.810503005981445,4.077239282196388e-06,0.00044827783131040633,0.004851836245507002,4.712859153747559
5534,2.9000000000000004,167.0987091064453,195.1455841064453,-0.0037982368376106024,-179.97679138183594,0.014548301696777344,0.0004234308726154268,7.994821195122616,0.5161784291267395,0.0,-0.00043982735951431096,2,-0.4095268249511719,0.004231750499457121,-4.57763690064894e-06,0.0017532437944841892,0.001511658291414186,2.796201705932617,0.3924950063228607,0.0097695617005229,9.810604095458984,-1.1832495147245936e-05,0.00046209676656872034,-0.005442822817713022,4.712794303894043
5535,2.95,166.69857788085938,195.1455078125,-0.003784503787755966,-179.97354125976562,0.0131139624863863,0.0002875995705835521,8.009988211480781,0.4866849184036255,0.0,0.00017573311924934387,2,-0.30333518981933594,-0.021265093237161636,-5.912779670325108e-06,0.0017517039971530926,0.0015051361702099187,2.796215534210205,0.3322383463382721,-0.015201520174741745,9.810236930847168,7.902204379206523e-05,0.0005114800296723843,0.005734423641115427,4.712850570678711
5536,3.0,166.2976531982422,195.14537048339844,-0.0037704657297581434,-179.97714233398438,0.01162498164921999,0.0002628158836159855,8.024525719385208,0.4650889039039612,0.0,-0.000870533986017108,2,-0.2907562255859375,0.027138125151395798,6.1035143517074175e-06,0.001769000226514662,0.0015082708673454669,2.796229600906372,0.3170003890991211,0.024829315021634102,9.81009292602539,-2.9090590032865293e-05,0.0005241854814812541,-0.005955668166279793,4.712788105010986
5537,3.0500000000000003,165.89601135253906,195.14529418945312,-0.0037564276717603207,-179.97471618652344,0.010156490840017796,0.0003001115401275456,8.037477581977512,0.4441757798194885,0.0,-0.0003670363512355834,2,-0.2590370178222656,-0.0016489461995661259,-5.531310307560489e-06,0.0017624388881189504,0.0015055740278692618,2.79624342918396,0.2967278063297272,-0.025181490927934647,9.809947967529297,-2.9524785531975795e-06,0.0005200086743570864,0.005223708692938089,4.712830066680908
5538,3.1,165.49375915527344,195.14517211914062,-0.0037428473588079214,-179.9779815673828,0.008735811337828636,0.0001761772873578593,8.050314268549348,0.42559298872947693,0.0,0.00017573311924934387,2,-0.2567291259765625,-0.021442797034978867,-2.0980837689421605e-06,0.0017458930370584547,0.0015049797688320584,2.7962570190429688,0.23149944841861725,0.009881462901830673,9.809730529785156,6.641828804276884e-05,0.00047916118637658656,-0.005341365467756987,4.712773323059082
5539,3.1500000000000004,165.0909881591797,195.14511108398438,-0.003730030031874776,-179.97557067871094,0.007390264421701431,0.0001583625125931576,8.06019978909609,0.4071049094200134,0.0,-0.000870533986017108,2,-0.19771575927734375,0.0270919781178236,-7.629394076502649e-06,0.0017662385416876228,0.0014797329145865576,2.796269655227661,0.22125878930091858,-0.01512089092284441,9.809659004211426,-2.600974403321743e-05,0.00045061411219649017,0.005125842057168484,4.712815284729004
5540,3.2,164.6877899169922,195.1449737548828,-0.0037181281950324774,-179.97955322265625,0.006147169973701239,7.046241807984188e-05,8.068142232220545,0.3930056393146515,0.0,0.0002485241857357323,2,-0.158843994140625,-0.025401752442121506,-4.196165264147567e-06,0.0017381897069402652,0.0014803139556037142,2.796281576156616,0.1660631000995636,0.02992907725274563,9.809669494628906,5.981424328638241e-05,0.0004223067662678659,-0.0058527453802526,4.712745666503906
5541,3.25,164.2841339111328,195.1448974609375,-0.0037074468564242125,-179.9772491455078,0.0050133587792515755,2.254387982247863e-05,8.075275522181858,0.38165536522865295,0.0,-0.0006155604496598244,2,-0.142669677734375,0.018084470182657242,-6.8664553509734105e-06,0.0017611902810144846,0.0014670779316175062,2.796292304992676,0.17084835469722748,-0.025071313604712486,9.809515953063965,-6.234474767552456e-06,0.0003810773487202823,0.005176226608455181,4.712785720825195
5542,3.3000000000000003,163.8801727294922,195.14483642578125,-0.0036979864817112684,-179.98216247558594,0.0040229810401797295,0.00013973469322081655,8.08195592374537,0.37141886353492737,0.0,-0.0006948008667677641,2,-0.13360977172851562,0.016029050573706627,-4.005432856502011e-06,0.0017684413661429362,0.0014753178997046648,2.79630184173584,0.13568712770938873,-0.005065925419330597,9.809521675109863,-5.9397945733508095e-05,0.0003262782411184162,-0.006223328877240419,4.712700366973877
5543,3.35,163.47592163085938,195.14483642578125,-0.003689899342134595,-179.98095703125,0.003169207600876689,0.00026728116790764034,8.08740617561917,0.36181652545928955,0.0,-0.0003670363512355834,2,-0.10900497436523438,-0.0010207935702055693,1.9073468138230965e-07,0.001747499008019775,0.0014691931693116451,2.7963099479675293,0.10553593933582306,-0.02008065953850746,9.8094482421875,-3.635890971054323e-05,0.0002746963291428983,0.004905929323285818,4.712721347808838
5544,3.4000000000000004,163.07144165039062,195.14480590820312,-0.00368295656517148,-179.98626708984375,0.002452037762850523,0.00037386815529316664,8.091474538832564,0.35402360558509827,0.0,-0.00043982735951431096,2,-0.08136749267578125,0.0044387634843587875,9.536745437799254e-07,0.0017557351621054179,0.0014610564043866926,2.7963171005249023,0.0954221710562706,0.00991322286427021,9.809527397155762,-3.762832420761697e-05,0.00023263026378117502,-0.006414816249161959,4.7126288414001465
5545,3.45,162.66677856445312,195.144775390625,-0.0036773872561752796,-179.98451232910156,0.0018646415555849671,0.00032712932443246245,8.095091920001659,0.3482286036014557,0.0,0.00017573311924934387,2,-0.07234573364257812,-0.019376780837774277,-2.2888179955771193e-06,0.001743537614184433,0.001465982703545586,2.7963225841522217,0.07031785696744919,-0.005074904765933752,9.80937385559082,4.4364118366502225e-05,0.00018856319366022944,0.005239435005933046,4.712658882141113
5546,3.5,162.2619171142578,195.14463806152344,-0.0036730384454131126,-179.98870849609375,0.0014070188626646996,0.0001793448900571093,8.09828104143997,0.34303906559944153,0.0,0.0,2,-0.06378173828125,-0.0040694233030080795,-4.0054324017546605e-06,0.001761675408563763,0.0014562215827917686,2.7963268756866455,0.07024775445461273,0.03495549410581589,9.809529304504395,5.3975385526428e-05,0.00014552214997820556,-0.0059020742774009705,4.712585926055908
5547,3.5500000000000003,161.85693359375,195.14456176757812,-0.003669681493192911,-179.98619079589844,0.0010518491035327315,2.2962107323110104e-05,8.100954209730784,0.33846530318260193,0.0,0.0,2,-0.053462982177734375,-0.0020381761714816093,-9.5367431640625e-06,0.001730712611991279,0.0014596675306852605,2.796330213546753,0.05017765983939171,-0.010015973821282387,9.809608459472656,5.3510604629991576e-05,0.00010730745998444036,0.005419429391622543,4.712630271911621
5548,3.6,161.4518280029297,195.1444854736328,-0.0036670875269919634,-179.99057006835938,0.0007923019002191722,3.459720755927265e-05,8.102912912488579,0.3346389830112457,0.0,-0.0006155604496598244,2,-0.03917694091796875,0.02367423102259636,4.00543194700731e-06,0.0017654676997727317,0.0014365215352175127,2.796332836151123,0.04513481259346008,-0.005013318732380867,9.809764862060547,-3.4992634027730674e-05,7.864062354201451e-05,-0.006176090333610773,4.71255350112915
5549,3.6500000000000004,161.046630859375,195.14447021484375,-0.0036654090508818626,-179.98837280273438,0.0006147170206531882,2.817407039401587e-05,8.104646761962298,0.33185112476348877,0.0,0.00017573311924934387,2,-0.03467559814453125,-0.014752240851521492,-6.48498553346144e-06,0.0017476933704470522,0.0014392652658292836,2.7963345050811768,0.04010016843676567,-0.025012942031025887,9.809531211853027,2.1377563825808465e-05,5.343948942027055e-05,0.005395161919295788,4.712592124938965
5550,3.7,160.641357421875,195.1443328857422,-0.0036643408238887787,-179.99221801757812,0.0004986037965863943,-3.0517569030052982e-05,8.10606393318582,0.32936421036720276,0.0,0.0,2,-0.02834320068359375,-0.0015497906133532524,-4.196166628389619e-06,0.0017594721622510524,0.0014498866467706733,2.7963356971740723,0.030092136934399605,0.0500011220574379,9.809844017028809,2.173498614865821e-05,3.374918014742434e-05,-0.005834917537868023,4.712524890899658
5551,3.75,160.2360076904297,195.14434814453125,-0.003663730574771762,-179.9900665283203,0.0004234717052895576,5.353615415515378e-05,8.107297897420954,0.32733774185180664,0.0,-0.0006155604496598244,2,-0.02468109130859375,0.023484332486987114,-3.051758312722086e-06,0.001760644535733175,0.0014482492693894406,2.7963364124298096,0.020062103867530823,-0.060012660920619965,9.809765815734863,-5.904079807805829e-05,1.7991491404245608e-05,0.005153703968971968,4.712562561035156
5552,3.8000000000000003,159.83062744140625,195.14431762695312,-0.0036632728297263384,-179.99427795410156,0.0003893207758665085,0.00010873302380787209,8.108165776550965,0.32556864619255066,0.0,0.00017573311924934387,2,-0.01735687255859375,-0.014463156461715698,-6.675720669591101e-06,0.0017490467638497386,0.0014370163704136244,2.7963366508483887,0.020068645477294922,0.019979380071163177,9.809922218322754,1.9799394976871554e-06,9.309270353696775e-06,-0.0059094615280628204,4.712488651275635
5553,3.85,159.42520141601562,195.1443328857422,-0.0036632728297263384,-179.9916534423828,0.0003756603691726923,8.68906281539239e-05,8.108965918215672,0.3243359327316284,0.0,0.0,2,-0.016002655029296875,-0.0017973710782825947,-4.577634626912186e-06,0.0017487230749361022,0.0014358733807933051,2.7963366508483887,0.015060675330460072,-0.02501705102622509,9.809844017028809,1.014244116959162e-05,2.6751949917525053e-06,0.005475414916872978,4.7125349044799805
5554,3.9000000000000004,159.0197296142578,195.144287109375,-0.0036631200928241014,-179.99533081054688,0.0003756603691726923,5.505428271135315e-05,8.10955147636811,0.323186457157135,0.0,0.0,2,-0.01171112060546875,-0.00040105078369379044,-1.907349087559851e-06,0.0017584122009226984,0.0014398514372470264,2.7963368892669678,0.02006634883582592,0.02498893439769745,9.810078620910645,1.1036376236006618e-05,1.6752467502101354e-07,-0.0057945773005485535,4.712470531463623
5555,3.95,158.61422729492188,195.1443328857422,-0.0036632728297263384,-179.99244689941406,0.0003756603691726923,2.4193395802285522e-05,8.11010746895923,0.32235315442085266,0.0,0.0,2,-0.011119842529296875,-8.704373612999916e-05,-5.149840944795869e-06,0.001757615652567041,0.001429690008378472,2.7963366508483887,0.005060364957898855,-0.030004793778061867,9.809844017028809,1.0324324648536276e-05,-1.4335419109556824e-06,0.005549405701458454,4.712520599365234
5556,4.0,158.20870971679688,195.144287109375,-0.0036632728297263384,-179.99595642089844,0.0003824905725196004,6.829651510997792e-07,8.110457464924204,0.32155364751815796,0.0,0.0,2,-0.006999969482421875,0.00047172652557492256,-3.051759449590463e-06,0.0017458480027415105,0.0014110826546914594,2.7963366508483887,0.01506759412586689,0.029998809099197388,9.810078620910645,6.674177711829543e-06,3.31479100168508e-07,-0.005748881958425045,4.712459564208984
5557,4.05,157.80319213867188,195.14431762695312,-0.0036631200928241014,-179.99354553222656,0.0003756603691726923,0.00013189666788093746,8.110826500963743,0.3210592269897461,0.0,-0.0006155604496598244,2,-0.007381439208984375,0.024499939754605293,2.6702878130890895e-06,0.0017419300755973797,0.0014145897315259112,2.7963368892669678,-0.004937930963933468,-0.020022019743919373,9.810078620910645,-7.293525413842872e-05,1.3854790950063034e-06,0.005234362091869116,4.712501525878906
5558,4.1000000000000005,157.39764404296875,195.14427185058594,-0.0036631200928241014,-179.9976348876953,0.00036883019492961466,0.00022023341443855315,8.111042029204246,0.3205266296863556,0.0,0.00017573311924934387,2,-0.00431060791015625,-0.013987374491989613,-1.0871885933738668e-05,0.0017556994705998107,0.0014059626089751253,2.7963368892669678,0.02006439119577408,0.029961463063955307,9.809922218322754,-8.047654773690738e-06,4.35285983257927e-06,-0.005861204117536545,4.712430477142334
5559,4.15,156.99208068847656,195.14431762695312,-0.003662967588752508,-179.994873046875,0.00035516981733962893,0.00021931700757704675,8.111302385935048,0.32022348046302795,0.0,0.0,2,-0.005207061767578125,-0.0016183132538571954,-9.536734069115482e-07,0.0017637793483599056,0.0014075313911031014,2.7963368892669678,5.67823663004674e-05,-0.04503755271434784,9.8100004196167,5.054942448623478e-06,5.777147634944413e-06,0.005510575138032436,4.7124786376953125
5560,4.2,156.58651733398438,195.14427185058594,-0.003662815084680915,-179.99847412109375,0.0003278490621596575,0.00019517760665621608,8.111419688782851,0.3198462724685669,0.0,0.0,2,-0.002346038818359375,-0.0003549997927621007,-2.098086042678915e-06,0.0017261534327038177,0.001402845198907689,2.796337127685547,5.693167622666806e-05,0.029966583475470543,9.81015682220459,1.0252664651488885e-05,8.500675903633237e-06,-0.005777713842689991,4.71241569519043
5561,4.25,156.18093872070312,195.144287109375,-0.0036625098437070847,-179.99551391601562,0.0003073585103265941,0.000159734147018753,8.111600887171727,0.31968408823013306,0.0,0.0,2,-0.00362396240234375,-0.00010246410965919495,0.0,0.0017505462984526439,0.001406505531449405,2.796337604522705,0.005051060579717159,-0.020027732476592064,9.809922218322754,1.3555599252867978e-05,9.040180884767324e-06,0.005568944849073887,4.712467193603516
5562,4.3,155.77537536621094,195.14427185058594,-0.0036622046027332544,-179.99899291992188,0.00028003775514662266,0.00012149908434366807,8.11166192121395,0.3194200396537781,0.0,0.0,2,-0.001220703125,0.0004327530041337013,-1.0108947208209429e-05,0.0017611349499832743,0.001400749238624409,2.796337842941284,4.829563476960175e-05,0.019979190081357956,9.810078620910645,1.3014502656005789e-05,1.062691353581613e-05,-0.005738875828683376,4.712406635284424
5563,4.3500000000000005,155.36981201171875,195.144287109375,-0.003661899594590068,-179.9959716796875,0.0002458867966197431,8.569781493861228e-05,8.111796388615174,0.3193378448486328,0.0,0.0,2,-0.002689361572265625,0.0002746802056208253,1.3351473171496764e-06,0.0017555627276714507,0.0013989432290778027,2.7963380813598633,-0.004959302023053169,-0.0200143214315176,9.809922218322754,1.2252037777216174e-05,9.976210094464477e-06,0.0055954474955797195,4.712459087371826
5564,4.4,154.96421813964844,195.14425659179688,-0.003661746857687831,-179.99937438964844,0.00021856604143977165,5.522773790289648e-05,8.111816414403911,0.31914058327674866,0.0,0.0,2,-0.000400543212890625,0.0005882448749616742,-8.201600394386332e-06,0.0017406326595143472,0.0014062427884190217,2.7963380813598633,0.01503774058073759,0.02999037504196167,9.809922218322754,9.391591447638348e-06,1.0371617463533767e-05,-0.00572146475315094,4.712399959564209
5565,4.45,154.55859375,195.144287109375,-0.0036614416167140007,-179.9962921142578,0.0001912452862598002,3.092791303060949e-05,8.111918456861126,0.3191172182559967,0.0,0.0,2,-0.002040863037109375,0.0003167457180097699,-3.242494130972773e-06,0.0017470878154844062,0.0013947962106305252,2.7963383197784424,0.005030160769820213,-0.04000562056899071,9.81015682220459,7.670708328078035e-06,8.826207704260014e-06,0.005607979372143745,4.712453842163086
5566,4.5,154.15298461914062,195.14425659179688,-0.003661136608570814,-179.9997100830078,0.00016392453107982874,1.3652817870024592e-05,8.11191464097936,0.3189663290977478,0.0,0.0,2,7.62939453125e-05,0.0005763507215306163,-3.814698175119702e-06,0.0017453098251541048,0.0013859481443564295,2.7963387966156006,2.8271675546420738e-05,0.039997659623622894,9.8100004196167,4.916652414976852e-06,8.379643986700103e-06,-0.0057132067158818245,4.7123942375183105
5567,4.55,153.74737548828125,195.144287109375,-0.003660983871668577,-179.9966278076172,0.000150264153489843,2.659326582943322e-06,8.111997610098648,0.31897684931755066,0.0,0.0,2,-0.001659393310546875,0.0002840894740074873,-2.098081495205406e-06,0.0017420581356207615,0.0013756665061374887,2.7963390350341797,2.3376731405733153e-05,-0.04000043869018555,9.809922218322754,3.282551460870309e-06,6.15297312833718e-06,0.0056137749925255775,4.7124481201171875
5568,4.6000000000000005,153.3417510986328,195.14425659179688,-0.0036609077360481024,-179.9999542236328,0.00012977358710486442,0.0,8.111976628294284,0.3188531696796417,0.0,0.0,2,0.00041961669921875,0.0005397852510213852,4.196167537884321e-06,0.001741462326057947,0.0013906825625448979,2.7963390350341797,0.005022247787564993,0.03999999538064003,9.809922218322754,8.419128789682873e-07,5.314587269822368e-06,-0.005709475837647915,4.712389945983887
5569,4.65,152.93614196777344,195.144287109375,-0.0036607549991458654,-179.9968719482422,0.00011611320951487869,0.0,8.112046246099448,0.3188883662223816,0.0,0.0,2,-0.001392364501953125,0.0002508546458557248,-7.629387255292386e-07,0.001740514013711352,0.0013803238511301205,2.7963390350341797,-0.004982302896678448,-0.03999972715973854,9.8100004196167,-3.621221367211547e-07,3.087643108301563e-06,0.0056165652349591255,4.712443828582764
5570,4.7,152.530517578125,195.14425659179688,-0.0036607549991458654,179.999755859375,0.00010928302071988583,1.396376546836109e-06,8.112016681396954,0.3187837600708008,0.0,0.0,2,0.000591278076171875,0.0005133298691362143,-5.531310307560489e-06,0.0017615887162177732,0.0013561425071542455,2.7963390350341797,1.854896436270792e-05,0.03999976068735123,9.8100004196167,-2.0164716261206195e-06,2.3815866825316334e-06,-0.005707663483917713,4.712385177612305
5571,4.75,152.12490844726562,195.14427185058594,-0.0036607549991458654,-179.99713134765625,0.00010928302071988583,7.589606411784189e-06,8.112077716219307,0.31883108615875244,0.0,0.0,2,-0.001220703125,0.00023158121621236205,3.242489583499264e-06,0.0017541166928001285,0.0013592966262519063,2.7963390350341797,1.7212627426488325e-05,-0.030001292005181313,9.8100004196167,-2.0524880710581783e-06,4.981286565453047e-07,0.005617904476821423,4.712439060211182
5572,4.800000000000001,151.71929931640625,195.14427185058594,-0.003660831367596984,179.99884033203125,0.00010928302071988583,0.00016200372192543,8.112040582052511,0.3187388479709625,0.0,-0.0006155604496598244,2,0.000743865966796875,0.024674536660313606,-4.959101715940051e-06,0.0017377467780705922,0.001373854822314858,2.7963390350341797,1.8509625078877434e-05,0.009972261264920235,9.8100004196167,-8.039217937039211e-05,3.0843452236695157e-07,-0.00605913158506155,4.712368965148926
5573,4.8500000000000005,151.3136749267578,195.144287109375,-0.003660831367596984,-179.99864196777344,0.00010928302071988583,0.00026490213349461555,8.112097745211052,0.31879711151123047,0.0,0.00017573311924934387,2,-0.0011444091796875,-0.014395867474377155,1.506804892414948e-05,0.0017538003067058972,0.0013460771430205323,2.7963390350341797,0.005018710624426603,-4.547371281660162e-05,9.8100004196167,-1.157481710833963e-05,-1.3217733112469432e-06,0.005481988191604614,4.7124128341674805
5574,4.9,150.90806579589844,195.14425659179688,-0.003660831367596984,179.99766540527344,0.00010928302071988583,0.00027136688004247844,8.112056734942918,0.31871017813682556,0.0,0.0,2,0.000820159912109375,-0.001481780200265348,-2.2888161765877157e-06,0.0017578503021281999,0.0013496060450827083,2.7963390350341797,-0.004981898237019777,0.01495333295315504,9.8100004196167,2.6434070150571642e-06,-1.0654665629772353e-06,-0.005798744969069958,4.712348461151123
5575,4.95,150.50244140625,195.14427185058594,-0.003660831367596984,-179.9993896484375,0.00011611320951487869,0.00024703130475245416,8.112109186139781,0.31877389550209045,0.0,0.0,2,-0.001049041748046875,-0.0007482475484721363,3.242494130972773e-06,0.0017613076032421432,0.0013416890015909874,2.7963390350341797,1.9673103452078067e-05,-0.020042289048433304,9.8100004196167,1.1810135220002849e-05,-2.0479733393585775e-06,0.005556351505219936,4.712399482727051
5576,5.0,150.09683227539062,195.14425659179688,-0.003660983871668577,179.99705505371094,0.00012294339830987155,0.00020709577074740082,8.112066270873703,0.3186939060688019,0.0,0.0,2,0.000858306884765625,7.205118890851736e-05,4.95910626341356e-06,0.001765487601992665,0.0013617105348491356,2.7963390350341797,2.053737625828944e-05,0.009964541532099247,9.8100004196167,1.5023233572719619e-05,-1.5178349030975369e-06,-0.005748710595071316,4.712337970733643
5577,5.050000000000001,149.69122314453125,195.14427185058594,-0.003660983871668577,-179.99989318847656,0.00012977358710486442,0.00016095925820991397,8.112116815700979,0.3187602460384369,0.0,0.0,2,-0.001010894775390625,7.976399501785636e-05,-2.2888207240612246e-06,0.0017616430965366771,0.0013509613982772214,2.7963390350341797,2.2183656255947426e-05,-0.020027559250593185,9.8100004196167,1.6630379832349718e-05,-2.1059115624666447e-06,0.005590139888226986,4.712390899658203
5578,5.1000000000000005,149.2855987548828,195.1442413330078,-0.003660983871668577,179.9966278076172,0.00012977358710486442,0.00011515047663124278,8.112071993590591,0.318682998418808,0.0,0.0,2,0.000896453857421875,0.0004868354881182313,3.4332288123550825e-06,0.0017617001877543428,0.0013473727241994809,2.7963390350341797,0.0050204540602862835,0.02998056821525097,9.8100004196167,1.5262106899172068e-05,-1.1106004649263923e-06,-0.005725875496864319,4.712330341339111
5579,5.15,148.87998962402344,195.14427185058594,-0.003660983871668577,179.9997100830078,0.00013660377589985728,7.330538937821984e-05,8.11212158500523,0.31875211000442505,0.0,0.0,2,-0.0009918212890625,0.00026676018023863435,-1.7166166799142957e-06,0.0017484774863434178,0.001339991079299735,2.7963390350341797,-0.004976456984877586,-0.030012575909495354,9.8100004196167,1.3822444998368155e-05,-1.5986136077117408e-06,0.005605647340416908,4.712384223937988
5580,5.2,148.474365234375,195.1442413330078,-0.003661136608570814,179.99632263183594,0.00013660377589985728,3.874729009112343e-05,8.112076763105637,0.3186761736869812,0.0,0.0,2,0.000896453857421875,0.0005513595533557236,5.722085916204378e-07,0.0017364260648690033,0.0013343627482382294,2.7963387966156006,2.1464638848556206e-05,0.029993364587426186,9.809922218322754,1.0711589311540592e-05,-4.5117735680832993e-07,-0.005715351551771164,4.712325096130371
5581,5.25,148.06875610351562,195.14427185058594,-0.003661136608570814,-179.9999237060547,0.00013660377589985728,-0.00012207030522404239,8.112123544768252,0.3187452554702759,0.0,0.0006155604496598244,2,-0.000934600830078125,-0.023903409019112587,8.392330528295133e-06,0.0017484116243802904,0.0013339062666569527,2.7963387966156006,2.334971031814348e-05,-0.029979100450873375,9.810078620910645,8.565497410017997e-05,-8.770427939452929e-07,0.005965119227766991,4.712390422821045
5582,5.300000000000001,147.66314697265625,195.14425659179688,-0.003661136608570814,179.99728393554688,0.00013660377589985728,-0.00024414055224042386,8.112077715247997,0.31867358088493347,0.0,-0.00017573311924934387,2,0.00091552734375,0.015150798484683037,-1.1444080882938579e-06,0.0017689314323867608,0.001325324640359387,2.7963387966156006,0.005022675730288029,0.015042033046483994,9.8100004196167,1.3722589756071102e-05,1.395294901840316e-07,-0.005573885515332222,4.712341785430908
5583,5.3500000000000005,147.2575225830078,195.1442413330078,-0.003661136608570814,-179.99859619140625,0.00013660377589985728,-0.00039672842831350863,8.11212359164178,0.3187439441680908,0.0,0.0006155604496598244,2,-0.00091552734375,-0.021952927112579346,-1.9073468138230965e-06,0.0017434996451610749,0.0013125199382342432,2.7963387966156006,-0.004976367112249136,0.010068044066429138,9.8100004196167,7.437048043357208e-05,-2.621059707053064e-07,0.006060781888663769,4.712413311004639
5584,5.4,146.85191345214844,195.14419555664062,-0.003661136608570814,179.998779296875,0.00013660377589985728,-0.00045776375918649137,8.112079634756165,0.31867361068725586,0.0,-0.00017573311924934387,2,0.00087738037109375,0.01609613001346588,1.2397763384797145e-05,0.001755362025221937,0.0013236564692551598,2.7963387966156006,2.3282771508092992e-05,0.005078378599137068,9.8100004196167,-4.921198978991015e-06,5.508957201527664e-07,-0.005509069189429283,4.712368011474609
5585,5.45,146.4462890625,195.1442413330078,-0.003661136608570814,-179.99758911132812,0.00013660377589985728,-0.00042724606464616954,8.112127311713076,0.318741112947464,0.0,0.0,2,-0.00095367431640625,0.0026258225552737713,-6.294249033089727e-06,0.0017594966324246187,0.0013266638891310854,2.7963387966156006,2.213001062045805e-05,-0.02992684580385685,9.8100004196167,-2.4115930500556715e-05,5.021458449050442e-08,0.005752504803240299,4.712430953979492
5586,5.5,146.04067993164062,195.14419555664062,-0.003661136608570814,179.9993133544922,0.00013660377589985728,-0.0003356933011673391,8.112081532261143,0.31866803765296936,0.0,0.0,2,0.00091552734375,0.0016048649558797479,3.623963493737392e-06,0.0017505473911738438,0.001310306410344617,2.7963387966156006,2.303123073943425e-05,0.030057469382882118,9.8100004196167,-3.494154952932149e-05,8.122797225951217e-07,-0.005615680478513241,4.712377071380615
5587,5.550000000000001,145.63507080078125,195.14418029785156,-0.003661136608570814,-179.9967041015625,0.00013660377589985728,-0.0003662109375,8.112127433310242,0.3187384307384491,0.0,0.0006155604496598244,2,-0.00091552734375,-0.023525504395365715,4.196165264147567e-06,0.0017355919560930343,0.0013144057886383099,2.7963387966156006,0.0050228131003677845,-0.009937586262822151,9.8100004196167,4.0180355426855385e-05,1.311456401253963e-07,0.006032945588231087,4.712446689605713
5588,5.6000000000000005,145.2294464111328,195.14414978027344,-0.003660983871668577,-179.9999542236328,0.00013660377589985728,-0.00021362301777116954,8.112080590766785,0.3186681270599365,0.0,-0.0007912935689091682,2,0.000934600830078125,0.03938011825084686,3.433226538618328e-06,0.0017602842372334438,0.0013150166736041436,2.7963390350341797,-0.00497660506516695,0.005036577582359314,9.810078620910645,-0.00010471868154127151,8.456380555799115e-07,-0.005879896227270365,4.712389945983887
5589,5.65,144.82383728027344,195.14418029785156,-0.003660983871668577,-179.99705505371094,0.00013660377589985728,-3.0517576306010596e-05,8.112128258399459,0.3187398314476013,0.0,0.00017573311924934387,2,-0.00095367431640625,-0.012470544315874577,2.47955313170678e-06,0.0017527086330635653,0.0012818958441108677,2.7963390350341797,2.2876074581290595e-05,-0.009994774125516415,9.809922218322754,-4.5811149902874604e-05,1.4112477408900759e-08,0.005603521130979061,4.712440490722656
5590,5.7,144.418212890625,195.14414978027344,-0.003660983871668577,179.99949645996094,0.00013660377589985728,9.002599108498544e-05,8.11208248247336,0.31866663694381714,0.0,0.0,2,0.00091552734375,-0.0006079055601730943,1.9073695511906408e-07,0.0017463633234814026,0.0013196993957724633,2.7963390350341797,2.334594501007814e-05,0.00498458556830883,9.8100004196167,-3.3893727959366515e-05,7.679446980546345e-07,-0.005716333165764809,4.712380409240723
5591,5.75,144.01260375976562,195.14418029785156,-0.003660983871668577,-179.99734497070312,0.00012977358710486442,0.0001664481678744778,8.112130166558345,0.31873705983161926,0.0,0.0,2,-0.00095367431640625,-0.0004177857772447169,-3.814716365013737e-07,0.0017474769051999159,0.001315023309365584,2.7963390350341797,0.005021755117923021,-0.010028726421296597,9.8100004196167,-2.205944292654749e-05,-1.8151381198094896e-07,0.005612521432340145,4.712435245513916
5592,5.800000000000001,143.60699462890625,195.14414978027344,-0.003660983871668577,179.99923706054688,0.00012977358710486442,0.00021423176804091781,8.112084390059545,0.31866389513015747,0.0,0.0,2,0.00091552734375,0.000142111093737185,1.1444103620306123e-06,0.0017387621707914878,0.0012853640967427733,2.7963390350341797,-0.0049780430272221565,0.019963247701525688,9.8100004196167,-1.3250734809844289e-05,5.169943619875994e-07,-0.005710470490157604,4.712375640869141
5593,5.8500000000000005,143.2013702392578,195.14418029785156,-0.003660983871668577,-179.9976348876953,0.00012977358710486442,0.00023685117776039988,8.112132073737383,0.3187343180179596,0.0,0.0,2,-0.00095367431640625,4.2291940189898014e-05,9.536734069115482e-07,0.001734374351597256,0.0012991127968394836,2.7963390350341797,2.118527663697023e-05,-0.025040552020072937,9.8100004196167,-4.582747806125553e-06,-2.487246604232496e-07,0.005616304464638233,4.712430477142334
5594,5.9,142.79576110839844,195.14414978027344,-0.003660983871668577,179.9989776611328,0.00012977358710486442,0.0002396730997134,8.112084389676236,0.3186611533164978,0.0,0.0,2,0.00095367431640625,0.0004176518996246159,1.1444103620306123e-06,0.001750730160190679,0.0012703618711094721,2.7963390350341797,2.1861791537958197e-05,0.019958961755037308,9.8100004196167,1.3106349570080056e-06,4.5368469159257074e-07,-0.00570800993591547,4.712371349334717
5595,5.95,142.39013671875,195.14418029785156,-0.003660983871668577,-179.99786376953125,0.00012977358710486442,0.00022672319028060883,8.112132073245245,0.31873440742492676,0.0,0.0,2,-0.00095367431640625,0.00020063365809619427,3.8146959013829473e-06,0.0017564879347020349,0.0012697137057250689,2.7963390350341797,2.1477933842106722e-05,-0.02003880962729454,9.8100004196167,6.582064997928683e-06,-4.87570218865585e-07,0.005617929622530937,4.71242618560791
5596,6.0,141.98452758789062,195.14414978027344,-0.003660983871668577,179.99871826171875,0.00012977358710486442,0.0002032247866736725,8.11208534289093,0.3186611533164978,0.0,0.0,2,0.000934600830078125,0.0005018741358071566,-5.722040441469289e-07,0.0017583304486227188,0.0012810131224927218,2.7963390350341797,0.005021775607019663,0.01996532455086708,9.8100004196167,9.009540917759296e-06,3.3193111903528916e-07,-0.005706959404051304,4.712367057800293
5597,6.050000000000001,141.57891845703125,195.14418029785156,-0.003660983871668577,-179.99815368652344,0.00012977358710486442,0.00017225790361408144,8.11213302648508,0.31873297691345215,0.0,0.0,2,-0.00095367431640625,0.00023897970095276833,-9.536734069115482e-07,0.001734406318113371,0.001260083926231255,2.7963390350341797,-0.004978588316589594,-0.02502932958304882,9.8100004196167,1.1470327081042342e-05,-5.250959134173172e-07,0.005618610419332981,4.712421417236328
5598,6.1000000000000005,141.1732940673828,195.14413452148438,-0.003660983871668577,179.99847412109375,0.00012977358710486442,0.00013844894419889897,8.112086296242104,0.31865978240966797,0.0,0.0,2,0.000934600830078125,0.0005119808483868837,7.247923349495977e-06,0.0017563118051282058,0.0012718167022176294,2.7963390350341797,2.1421907149488106e-05,0.029976295307278633,9.8100004196167,1.1690915926010348e-05,3.1112531928556564e-07,-0.005706505849957466,4.712362289428711
5599,6.15,140.76768493652344,195.14418029785156,-0.003660983871668577,-179.99839782714844,0.00012977358710486442,0.00010451730486238375,8.112133979893075,0.3187316060066223,0.0,0.0,2,-0.00095367431640625,0.0002326281537534669,3.2424929941043956e-06,0.0017471583387843968,0.001266628839369796,2.7963390350341797,2.1386140360846184e-05,-0.03001788817346096,9.8100004196167,1.1719318536052015e-05,-4.629327179372922e-07,0.00561891682446003,4.712416648864746
5600,6.2,140.362060546875,195.14413452148438,-0.003660983871668577,179.99819946289062,0.00012977358710486442,7.338473369600251e-05,8.112086296094594,0.31865841150283813,0.0,0.0,2,0.00095367431640625,0.0004975013434886932,-2.8610236313397763e-06,0.0017557514920500902,0.0012676921405378456,2.7963390350341797,2.128243249899242e-05,0.029987433925271034,9.8100004196167,1.0038196705863811e-05,3.292974497526302e-07,-0.00570631492882967,4.712357997894287
5601,6.25,139.95645141601562,195.14418029785156,-0.003660983871668577,-179.99864196777344,0.00012977358710486442,4.606414950103499e-05,8.112133979798275,0.3187316656112671,0.0,0.0,2,-0.00095367431640625,0.00021581078181043267,-5.722040441469289e-07,0.0017325274912442597,0.0012769936280025848,2.7963390350341797,0.005021511111408472,-0.03000800497829914,9.8100004196167,8.856313797878101e-06,-4.992573394702049e-07,0.005619032308459282,4.7124128341674805
5602,6.300000000000001,139.55084228515625,195.14413452148438,-0.003660983871668577,179.99794006347656,0.00012977358710486442,2.4458742700517178e-05,8.112086296106963,0.31865841150283813,0.0,0.0,2,0.00095367431640625,0.0004807469085790217,9.5367431640625e-06,0.001746031951142432,0.0012524418888780788,2.7963390350341797,-0.004978847689926624,0.0299956277012825,9.8100004196167,6.577167823706986e-06,2.3799687198788888e-07,-0.0057062264531850815,4.712353706359863
5603,6.3500000000000005,139.1452178955078,195.14418029785156,-0.003660983871668577,-179.9989013671875,0.00013660377589985728,8.34953516459791e-06,8.112133979854292,0.3187316656112671,0.0,0.0,2,-0.00095367431640625,0.00020164581655990332,-2.8610236313397763e-06,0.0017501232274025969,0.0012342921482361513,2.7963390350341797,2.2816653654444963e-05,-0.03000142239034176,9.8100004196167,5.0638377615541685e-06,-4.333469405537471e-07,0.005619104951620102,4.712408065795898
