frame,sim_time,x,y,z,yaw,pitch,roll,speed_mps,throttle,brake,steer,gear,acc_x,acc_y,acc_z,gnss_lat,gnss_lon,gnss_alt,imu_acc_x,imu_acc_y,imu_acc_z,imu_gyro_x,imu_gyro_y,imu_gyro_z,imu_compass,wp_x,wp_y,wp_road_id,wp_lane_id,odom_m,cloudiness,precipitation,sun_altitude,n_collisions,n_lane_invasions
1487,0.0,396.1824645996094,97.43647003173828,-0.004032230470329523,-88.72366333007812,0.0032580001279711723,0.021765748038887978,5.303169064127796,0.8500000238418579,0.0,-0.013868328183889389,2,-0.04934847354888916,-0.248260498046875,0.009204483591020107,0.0008813408855107408,0.0035565072272723958,2.7959673404693604,0.5011519193649292,-0.09490406513214111,9.82149887084961,-0.0016212675254791975,-0.002715728245675564,-0.019498569890856743,0.02227753959596157,396.2896423339844,97.43656158447266,8,-1,0.0,5.0,0.0,45.0,0,2
1488,0.05,396.1864318847656,97.17041778564453,-0.004035892430692911,-88.76268768310547,0.010532150976359844,0.02505107782781124,5.310465803369572,0.8500000238418579,0.0,-0.012957115657627583,2,-0.04495963454246521,-0.1465606689453125,0.00531806843355298,0.0008807551684257694,0.0035461608106754938,2.795963764190674,0.6380767226219177,-0.06804722547531128,9.818995475769043,-0.0008245976641774178,-0.0020658117718994617,-0.00654407637193799,0.021595481783151627,396.2895812988281,97.1705093383789,8,-1,0.26608182388701473,5.0,0.0,45.0,0,2
1489,0.1,396.1903076171875,96.90089416503906,-0.004037494771182537,-88.80032348632812,0.01846200041472912,0.02622445486485958,5.418191501827364,0.8500000238418579,0.0,-0.012274038977921009,2,-0.0035744905471801758,-2.1547508239746094,0.0018875137902796268,0.0008713886883575129,0.003551196803605734,2.79596209526062,1.3732668161392212,-0.13320398330688477,9.810358047485352,-0.00015123793855309486,-0.0027949707582592964,-0.016504578292369843,0.020939622074365616,396.2895202636719,96.9009780883789,8,-1,0.5356333094442022,5.0,0.0,45.0,0,2
1490,0.15000000000000002,396.1942138671875,96.62925720214844,-0.004026889801025391,-88.83948516845703,0.025114603340625763,0.025566937401890755,5.4334054729206684,0.8500000238418579,0.0,-0.011531693860888481,2,-0.030357688665390015,-0.3046989440917969,-0.0009571085684001446,0.000862953319866812,0.003569712131433739,2.7959725856781006,0.8789201378822327,-0.032099127769470215,9.814446449279785,0.00044158368837088346,-0.0018724285764619708,-0.015456232242286205,0.02025371976196766,396.2894592285156,96.62934112548828,8,-1,0.8072983576147486,5.0,0.0,45.0,0,2
1491,0.2,396.1980895996094,96.35582733154297,-0.00400621397420764,-88.87643432617188,0.030080150812864304,0.023417135700583458,5.513843014915277,0.8500000238418579,0.0,-0.010761992074549198,2,-0.0011517107486724854,-1.608896255493164,-0.0030931481160223484,0.0008839943617202442,0.003556005718044421,2.7959930896759033,0.7494206428527832,-0.04861348867416382,9.813495635986328,0.0008857273496687412,-0.0019902330823242664,-0.014890993945300579,0.019610749557614326,396.2893981933594,96.35591888427734,8,-1,1.0807556951303643,5.0,0.0,45.0,0,2
1492,0.25,396.2020568847656,96.07792663574219,-0.003999118693172932,-88.91948699951172,0.03548965975642204,0.020312828943133354,5.580008749246716,0.8500000238418579,0.0,-0.010093373246490955,2,-0.00566527247428894,-1.3234901428222656,-0.004535482730716467,0.0008486286226720366,0.003573771336119806,2.7960002422332764,1.7934435606002808,-0.02718484401702881,9.803726196289062,0.0011746984673663974,-0.001697683590464294,-0.015490656718611717,0.018857672810554504,396.2893371582031,96.07801055908203,8,-1,1.358684707790197,5.0,0.0,45.0,0,2
1493,0.30000000000000004,396.2059631347656,95.79873657226562,-0.003979511093348265,-88.96234130859375,0.03822856768965721,0.01661544479429722,5.601042975819484,0.8500000238418579,0.0,-0.009187123738229275,2,-0.025336742401123047,-0.42102813720703125,-0.005288505926728249,0.000853101267151435,0.0035577767328861037,2.7960197925567627,0.565551221370697,-0.06297922134399414,9.814451217651367,0.0013016305165365338,-0.0007098153000697494,-0.01721315085887909,0.01810619980096817,396.2892761230469,95.79882049560547,8,-1,1.637902096813713,5.0,0.0,45.0,0,2
1494,0.35000000000000003,396.2096252441406,95.51761627197266,-0.003956775646656752,-88.99363708496094,0.03918479382991791,0.012658879160881042,5.649987104478584,0.8500000238418579,0.0,-0.008397278375923634,2,-0.004888623952865601,-0.9790134429931641,-0.00540504464879632,0.0008592203970548109,0.0035594953790135885,2.7960424423217773,0.8200032114982605,-0.10646778345108032,9.810590744018555,0.0013684171717613935,-0.0002887197770178318,-0.007716529071331024,0.01756138913333416,396.2892150878906,95.51769256591797,8,-1,1.919046248952582,5.0,0.0,45.0,0,2
1495,0.4,396.21343994140625,95.23332977294922,-0.003943042829632759,-89.03963470458984,0.039710719138383865,0.008870139718055725,5.723774745505823,0.8500000238418579,0.0,-0.007833180949091911,2,-0.0024853646755218506,-1.4758872985839844,-0.005130385980010033,0.0008612533630552245,0.0035770794297852134,2.796056032180786,1.2774560451507568,0.027188777923583984,9.805684089660645,0.0012431694194674492,-0.0003078737063333392,-0.01830306090414524,0.016758987680077553,396.2891540527344,95.23340606689453,8,-1,2.203358340574151,5.0,0.0,45.0,0,2
1496,0.45,396.21710205078125,94.9456787109375,-0.00393754942342639,-89.06999206542969,0.039881471544504166,0.005416119005531073,5.7500395949742655,0.8500000238418579,0.0,-0.0068275355733931065,2,-0.00469401478767395,-0.5253887176513672,-0.004419899079948664,0.0008441044393862088,0.0035579828602465197,2.7960617542266846,1.3561609983444214,-0.05283463001251221,9.805693626403809,0.001164266373962164,0.00047168420860543847,-0.005256029311567545,0.01622772589325905,396.2890930175781,94.94574737548828,8,-1,2.491032712949488,5.0,0.0,45.0,0,2
1497,0.5,396.2207336425781,94.65608215332031,-0.003928775899112225,-89.09786224365234,0.03867252916097641,0.0024318646173924208,5.810502097976187,0.8500000238418579,0.0,-0.006382407154887915,2,-0.001090914011001587,-1.2093448638916016,-0.0035795210860669613,0.0008593136133772349,0.00356575965535731,2.7960705757141113,0.8162067532539368,-0.03316706418991089,9.810778617858887,0.0009577813325449824,0.0005536673124879599,-0.0065692695789039135,0.01574297435581684,396.2890319824219,94.6561508178711,8,-1,2.7806520400716677,5.0,0.0,45.0,0,2
1498,0.55,396.2242736816406,94.36287689208984,-0.003930683247745037,-89.12081146240234,0.037798263132572174,5.712280471925624e-05,5.905465929369338,0.8500000238418579,0.0,-0.005843072663992643,2,0.008950680494308472,-1.8992996215820312,-0.002586555201560259,0.000861895483938645,0.0035627196739193177,2.7960686683654785,1.440992832183838,-0.04202604293823242,9.804832458496094,0.0007135628256946802,7.087679114192724e-05,-0.010462983511388302,0.015340265817940235,396.2889709472656,94.3629379272461,8,-1,3.0738786710071806,5.0,0.0,45.0,0,2
1499,0.6000000000000001,396.22772216796875,94.06768035888672,-0.003928318154066801,-89.13189697265625,0.03593362495303154,-0.00173950067255646,5.901342846310962,0.8500000238418579,0.0,-0.005460710730403662,2,-0.006917715072631836,0.08238792419433594,-0.0016073230654001236,0.000841285781430516,0.003562985099461807,2.7960710525512695,0.8181055188179016,-0.04200869798660278,9.81113052368164,0.0005509225884452462,0.0010796578135341406,-0.0008024525595828891,0.015152606181800365,396.2889099121094,94.06774139404297,8,-1,3.369095346134279,5.0,0.0,45.0,0,2
1500,0.65,396.2311706542969,93.76920318603516,-0.003931903745979071,-89.14065551757812,0.034437812864780426,-0.0028991703875362873,5.999772739239375,0.8500000238418579,0.0,-0.005413189064711332,2,0.010731667280197144,-1.9686031341552734,-0.0007282255683094263,0.0008466878609298418,0.0035649547589960617,2.796067476272583,1.316047191619873,0.0008469820022583008,9.806867599487305,0.00031385422335006297,0.00040382033330388367,-0.003095522290095687,0.014998405240476131,396.2888488769531,93.7692642211914,8,-1,3.6675924395395865,5.0,0.0,45.0,0,2
1501,0.7000000000000001,396.2345275878906,93.46802520751953,-0.003935947548598051,-89.14486694335938,0.03291467949748039,-0.0035095205530524254,6.050925498554334,0.8500000238418579,0.0,-0.0052499896846711636,2,0.005877166986465454,-1.0230541229248047,2.4032779037952423e-05,0.0008328819392550595,0.0035760229756227812,2.7960634231567383,1.0875669717788696,-0.045551300048828125,9.809144973754883,0.00014631394878961146,0.00044594763312488794,0.0005994767416268587,0.014922703616321087,396.2887878417969,93.46808624267578,8,-1,3.968789125686548,5.0,0.0,45.0,0,2
1502,0.75,396.2374572753906,93.16368865966797,-0.003943271469324827,-89.15818786621094,0.03186282888054848,-0.0015563946217298508,6.1266483039112005,0.8500000238418579,0.0,-0.014244094491004944,2,-0.33093398809432983,-1.517791748046875,0.0006523128831759095,0.0008335233177280239,0.0035497540946965306,2.7960565090179443,1.2510566711425781,-0.13804852962493896,9.808137893676758,-0.0011106454767286777,8.812686428427696e-05,-0.006858194712549448,0.014693260192871094,396.2887268066406,93.16374969482422,8,-1,4.2731397744899535,5.0,0.0,45.0,0,2
1503,0.8,396.2400817871094,92.85743713378906,-0.003942813724279404,-89.1819076538086,0.030209925025701523,0.0018005319871008396,6.133127146619292,0.8500000238418579,0.0,-0.011496840044856071,2,-0.09034566581249237,-0.13031005859375,0.0010061264038085938,0.0008351366008775326,0.0035483125393700526,2.7960567474365234,0.7838093638420105,-0.1014358401298523,9.812554359436035,-0.0011877201031893492,0.000761904870159924,-0.009268094785511494,0.014277651906013489,396.2886657714844,92.85749053955078,8,-1,4.579402545921481,5.0,0.0,45.0,0,2
1504,0.8500000000000001,396.24261474609375,92.54938507080078,-0.003935413435101509,-89.21570587158203,0.02810622751712799,0.00510680815204978,6.17633882073662,0.8500000238418579,0.0,-0.010980801656842232,2,-0.06579093635082245,-0.8647441864013672,0.0012857437832280993,0.0008212190398948526,0.0035622523040468616,2.7960641384124756,0.731697678565979,-0.05082881450653076,9.812372207641602,-0.0011262246407568455,0.0007767021888867021,-0.01614866591989994,0.013685054145753384,396.2886047363281,92.54943084716797,8,-1,4.887465022365063,5.0,0.0,45.0,0,2
1505,0.9,396.24505615234375,92.23826599121094,-0.003932132851332426,-89.25200653076172,0.026835812255740166,0.007862666621804237,6.229509195409854,0.8500000238418579,0.0,-0.010230759158730507,2,-0.027273595333099365,-1.0636234283447266,0.0013406755169853568,0.0008149276341967753,0.0035647338300680903,2.796067476272583,1.2138381004333496,-0.06713759899139404,9.807940483093262,-0.0008621719898656011,0.0006157688330858946,-0.013282977044582367,0.013056481257081032,396.2885437011719,92.23831939697266,8,-1,5.198593680880008,5.0,0.0,45.0,0,2
1506,0.9500000000000001,396.2475280761719,91.92561340332031,-0.003921146504580975,-89.2900161743164,0.025080453604459763,0.009858749806880951,6.26721640156855,0.8500000238418579,0.0,-0.00954492762684822,2,-0.03649607300758362,-0.7544040679931641,0.00129184708930552,0.000842261987870191,0.003555471076771116,2.7960784435272217,0.631747305393219,-0.009463906288146973,9.812692642211914,-0.0006094509735703468,0.0006498879520222545,-0.013316704891622066,0.012391268275678158,396.2884826660156,91.92565155029297,8,-1,5.511256040498362,5.0,0.0,45.0,0,2
1507,1.0,396.2498474121094,91.61091613769531,-0.003909015562385321,-89.32869720458984,0.02353000082075596,0.011035330593585968,6.3382219944117715,0.8500000238418579,0.0,-0.008798301219940186,2,-0.01705668866634369,-1.4202499389648438,0.0011596678523346782,0.0008323752183444341,0.003540142763185379,2.796090602874756,0.8154187202453613,-0.10140252113342285,9.8101167678833,-0.0003316818329039961,8.124287705868483e-05,-0.014072603546082973,0.011713729240000248,396.28839111328125,91.61095428466797,8,-1,5.825961852823211,5.0,0.0,45.0,0,2
1508,1.05,396.2520751953125,91.29303741455078,-0.0039048194885253906,-89.35772705078125,0.02307920716702938,0.011432343162596226,6.363597267016583,0.8500000238418579,0.0,-0.00803187396377325,2,-0.01715436577796936,-0.5076217651367188,0.000959205674007535,0.0008074866698768295,0.0035532232545411047,2.7960948944091797,1.2534234523773193,-0.05596601963043213,9.806360244750977,-3.1637202482670546e-05,0.000322297535603866,-0.005350065417587757,0.01121459435671568,396.288330078125,91.29308319091797,8,-1,6.143848382336491,5.0,0.0,45.0,0,2
1509,1.1,396.2542419433594,90.97215270996094,-0.003906421363353729,-89.38052368164062,0.02346169762313366,0.011152894236147404,6.453898101009669,0.8500000238418579,0.0,-0.007560719735920429,2,-0.010992065072059631,-1.8061161041259766,0.0007392882835119963,0.0008034414272332088,0.003555496261200674,2.796092987060547,1.1862307786941528,-0.03469252586364746,9.807085990905762,0.00016921036876738071,-0.00043513323180377483,-0.007605725899338722,0.010814132168889046,396.28826904296875,90.9721908569336,8,-1,6.464740402238529,5.0,0.0,45.0,0,2
1510,1.1500000000000001,396.25634765625,90.64823913574219,-0.003912906628102064,-89.3979721069336,0.024513548240065575,0.010322573594748974,6.51172438427455,0.8500000238418579,0.0,-0.007191270589828491,2,-0.010340362787246704,-1.156606674194336,0.0004638672689907253,0.0008063072567340638,0.003561900736167984,2.796086549758911,1.208604335784912,-0.06442523002624512,9.807597160339355,0.0003484024782665074,-0.0005974102532491088,-0.0055249640718102455,0.01050660852342844,396.2882080078125,90.64827728271484,8,-1,6.788660820844617,5.0,0.0,45.0,0,2
1511,1.2000000000000002,396.2584533691406,90.32183074951172,-0.003918475937098265,-89.41696166992188,0.02553124539554119,0.009116334840655327,6.545426084903984,0.8500000238418579,0.0,-0.0069467960856854916,2,-0.020374134182929993,-0.6741619110107422,0.00026836394681595266,0.0008181799439549435,0.0035402539891053763,2.796081066131592,0.9991164207458496,-0.031684696674346924,9.809942245483398,0.00044188060564920306,-0.00031308981124311686,-0.007113264873623848,0.010172244161367416,396.2881164550781,90.32186126708984,8,-1,7.115075999150339,5.0,0.0,45.0,0,2
1512,1.25,396.2604675292969,89.994140625,-0.00391389848664403,-89.4387435913086,0.02555856667459011,0.007659451570361853,6.564224547352759,0.8500000238418579,0.0,-0.006553253158926964,2,-0.008769035339355469,-0.3760242462158203,3.18526872433722e-05,0.0008023939139341618,0.0035872857625707387,2.796085834503174,0.5414601564407349,-0.046575069427490234,9.813737869262695,0.0005305018275976181,0.00012836404494009912,-0.0081423819065094,0.009802216663956642,396.2880554199219,89.99417877197266,8,-1,7.442772313660651,5.0,0.0,45.0,0,2
1513,1.3,396.262451171875,89.66473388671875,-0.0039046667516231537,-89.46215057373047,0.025053132325410843,0.006122726481407881,6.600762953192275,0.8500000238418579,0.0,-0.006201059091836214,2,-0.017872527241706848,-0.7308769226074219,-0.00011005409760400653,0.0008017389180041771,0.0035568787743132995,2.7960948944091797,0.6916662454605103,-0.017501473426818848,9.811572074890137,0.0005221348255872726,0.0002584101748652756,-0.007865192368626595,0.009385963901877403,396.2879943847656,89.6647720336914,8,-1,7.772185024500669,5.0,0.0,45.0,0,2
1514,1.35,396.2644958496094,89.33333587646484,-0.003894748631864786,-89.48712158203125,0.024438414722681046,0.004608959425240755,6.645782151115402,0.8500000238418579,0.0,-0.005701183341443539,2,-0.006324052810668945,-0.9004306793212891,-0.00022392268874682486,0.0007952356809687518,0.0035580138349702046,2.796104907989502,0.811830997467041,0.011981844902038574,9.810046195983887,0.0005055814981460571,0.00020279322052374482,-0.008309905417263508,0.008950373157858849,396.2879333496094,89.33336639404297,8,-1,8.103589342377317,5.0,0.0,45.0,0,2
1515,1.4000000000000001,396.2665100097656,88.9994888305664,-0.0038884924724698067,-89.51416015625,0.024103736504912376,0.00324466940946877,6.688431735366645,0.8500000238418579,0.0,-0.005287759471684694,2,-0.011093616485595703,-0.8530616760253906,-0.00031108851544559,0.000797296896144952,0.0035593913802570705,2.7961111068725586,0.9717609286308289,0.011240005493164062,9.807952880859375,0.0004369894741103053,0.00020207956549711525,-0.010991040617227554,0.00848544854670763,396.287841796875,88.99951934814453,8,-1,8.437442464118373,5.0,0.0,45.0,0,2
1516,1.4500000000000002,396.26849365234375,88.6640625,-0.003878650488331914,-89.5367431640625,0.02336607500910759,0.0020656404085457325,6.726429863233905,0.8500000238418579,0.0,-0.004728861153125763,2,-0.0075835734605789185,-0.7600116729736328,-0.0003496170393191278,0.0008152382548768519,0.0035599207123992458,2.7961208820343018,0.6487375497817993,-0.03556770086288452,9.811219215393066,0.000379971694201231,0.00022443351917900145,-0.004295391961932182,0.008082514628767967,396.28778076171875,88.6640853881836,8,-1,8.77287466006134,5.0,0.0,45.0,0,2
1517,1.5,396.27044677734375,88.32523345947266,-0.003881702432408929,-89.55754852294922,0.023844189941883087,0.0011473800987005234,6.8070493744111475,0.8500000238418579,0.0,-0.004364985506981611,2,-0.006559416651725769,-1.6124439239501953,-0.00031013484112918377,0.0007905449070695682,0.0035456734053367204,2.7961177825927734,1.3414632081985474,-0.020524144172668457,9.804286003112793,0.00028041756013408303,-0.0003550114342942834,-0.003789372043684125,0.007720423396676779,396.2877197265625,88.32526397705078,8,-1,9.111709329777923,5.0,0.0,45.0,0,2
1518,1.55,396.2722473144531,87.98442077636719,-0.0038825415540486574,-89.59014892578125,0.024035435169935226,0.0011962228454649448,6.826200281251415,0.8500000238418579,0.0,-0.0069826869294047356,2,-0.12694475054740906,-0.38359642028808594,-0.0003293991321697831,0.0007979214552694433,0.003565057397853042,2.796117067337036,0.7988091111183167,-0.04589056968688965,9.810681343078613,-0.00019619341765064746,5.6624412536621094e-05,-0.01647716946899891,0.00715962378308177,396.2876281738281,87.98444366455078,8,-1,9.452526769031596,5.0,0.0,45.0,0,2
1519,1.6,396.2738952636719,87.64146423339844,-0.0038839911576360464,-89.62191772460938,0.024192528799176216,0.0018802039558067918,6.8852019384064835,0.8500000238418579,0.0,-0.005444827955216169,2,-0.04334941506385803,-1.1802101135253906,-0.00023345946101471782,0.000794261751209073,0.003554037438436214,2.7961156368255615,0.8637932538986206,-0.0559956431388855,9.809244155883789,-0.00028004933847114444,-0.00018405141599942,-0.008546270430088043,0.006596328224986792,396.2875671386719,87.64148712158203,8,-1,9.795487271278873,5.0,0.0,45.0,0,2
1520,1.6500000000000001,396.2754211425781,87.29660034179688,-0.003882999299094081,-89.65780639648438,0.024069584906101227,0.0027002051938325167,6.910400367651294,0.8500000238418579,0.0,-0.004801281727850437,2,-0.033962056040763855,-0.5040931701660156,-0.0002101898135151714,0.0007785975679522978,0.003560755846259174,2.796116590499878,0.7688689231872559,-0.04503047466278076,9.810691833496094,-0.0003070086822845042,0.00010972763993777335,-0.016736255958676338,0.005970233120024204,396.2874755859375,87.296875,8,-1,10.140354538552835,5.0,0.0,45.0,0,2
1521,1.7000000000000002,396.27679443359375,86.94977569580078,-0.0038813971914350986,-89.67830657958984,0.023810038343071938,0.0034198504872620106,6.9593169167814475,0.8500000238418579,0.0,-0.004043549299240112,2,-0.019812695682048798,-0.9784030914306641,-0.00012645719107240438,0.0007918766089029907,0.0035658087122021893,2.7961180210113525,0.7961710691452026,-0.07503396272659302,9.809901237487793,-0.00022987114789430052,-7.582420948892832e-07,-0.002086817752569914,0.005620546638965607,396.2875671386719,86.95143127441406,8,-1,10.487181903388036,5.0,0.0,45.0,0,2
1522,1.75,396.2781677246094,86.6009521484375,-0.0038788793608546257,-89.6999740600586,0.02343437820672989,0.00399299431592226,6.988980436593835,0.8500000238418579,0.0,-0.003809275571256876,2,-0.023261047899723053,-0.5933475494384766,-8.106231689453125e-05,0.0007632628097406284,0.0035695859874685584,2.7961208820343018,0.801501452922821,-0.0048596858978271484,9.810142517089844,-0.00019292865181341767,0.00018829763575922698,-0.012154830619692802,0.005224843509495258,396.28790283203125,86.60380554199219,8,-1,10.836008154010488,5.0,0.0,45.0,0,2
1523,1.8,396.279296875,86.25064086914062,-0.0038723181933164597,-89.71395111083984,0.022635245695710182,0.0043398491106927395,7.0207602709362895,0.8500000238418579,0.0,-0.0033812103793025017,2,-0.014273859560489655,-0.6356430053710938,-3.2997158996295184e-05,0.0007752109650885348,0.0035571937616966894,2.7961273193359375,0.6083193421363831,-0.11376219987869263,9.811236381530762,-8.586610783822834e-05,0.00029221727163530886,-0.00020243397739250213,0.004991472233086824,396.288330078125,86.25349426269531,8,-1,11.18632125308504,5.0,0.0,45.0,0,2
1524,1.85,396.2804260253906,85.89855194091797,-0.0038654517848044634,-89.73238372802734,0.021795133128762245,0.004486188758164644,7.06100281508259,0.8500000238418579,0.0,-0.003189627779647708,2,-0.016054846346378326,-0.804901123046875,2.4795554054435343e-05,0.0007873754116981368,0.003557607075806628,2.7961342334747314,0.7162706851959229,0.005904018878936768,9.809964179992676,-3.410890349186957e-05,0.00022324116434901953,-0.009530432522296906,0.0046834335662424564,396.28875732421875,85.90139770507812,8,-1,11.538411991897613,5.0,0.0,45.0,0,2
1525,1.9000000000000001,396.2814636230469,85.54352569580078,-0.003867511637508869,-89.73906707763672,0.021890755742788315,0.004401765298098326,7.116985194969219,0.8500000238418579,0.0,-0.0027681004721671343,2,-0.006686672568321228,-1.1196708679199219,5.3024268709123135e-05,0.0007546279792117296,0.0035652457954592435,2.7961320877075195,1.1585525274276733,-0.0460127592086792,9.805883407592773,6.966009095776826e-05,-3.833902155747637e-05,0.0033166841603815556,0.0045674568973481655,396.2891845703125,85.54637145996094,8,-1,11.893439753250025,5.0,0.0,45.0,0,2
1526,1.9500000000000002,396.2825622558594,85.18677520751953,-0.003867130260914564,-89.75119018554688,0.021747320890426636,0.004142581019550562,7.150820273750629,0.8500000238418579,0.0,-0.002775828819721937,2,-0.011975504457950592,-0.6767368316650391,8.144379535224289e-05,0.0007574244345168102,0.003573144310950295,2.7961323261260986,0.6988041400909424,0.01627248525619507,9.810674667358398,0.00010090633440995589,4.25914695370011e-05,-0.008383234031498432,0.004339942242950201,396.28961181640625,85.18962097167969,8,-1,12.250191933177446,5.0,0.0,45.0,0,2
1527,2.0,396.2835388183594,84.82799530029297,-0.0038672827649861574,-89.75210571289062,0.021699510514736176,0.0037097642198204994,7.194992465371511,0.8500000238418579,0.0,-0.0024640632327646017,2,-0.0031159818172454834,-0.8834552764892578,8.449555025435984e-05,0.0007652605376436567,0.0035732671940925235,2.7961323261260986,0.8134912848472595,-0.05413907766342163,9.809611320495605,0.00018140330212190747,-4.1702325688675046e-05,0.004607089329510927,0.004326186142861843,396.2900390625,84.83084106445312,8,-1,12.60897316945356,5.0,0.0,45.0,0,2
1528,2.0500000000000003,396.2846374511719,84.46736907958984,-0.00386606203392148,-89.76004028320312,0.021556075662374496,0.0032130328472703695,7.225278328211759,0.8500000238418579,0.0,-0.002668672241270542,2,-0.013711154460906982,-0.6057548522949219,7.629393803654239e-05,0.0007406378804719745,0.0035509941622780448,2.7961337566375732,0.7463100552558899,0.026340007781982422,9.81026840209961,0.00016559200594201684,9.572014096193016e-05,-0.007100521121174097,0.004186142701655626,396.29046630859375,84.47021484375,8,-1,12.969601063622433,5.0,0.0,45.0,0,2
1529,2.1,396.28564453125,84.10464477539062,-0.0038667486514896154,-89.7672348022461,0.021556075662374496,0.002685638377442956,7.274951059226412,0.8500000238418579,0.0,-0.00248172739520669,2,-0.005326271057128906,-0.9934711456298828,8.41140717966482e-05,0.0007693498793743911,0.003553022450462902,2.796132802963257,0.8385615944862366,-0.033851563930511475,9.808746337890625,0.0001894900924526155,-7.721611473243684e-05,0.0011285586515441537,0.0040559712797403336,396.2908935546875,84.10749816894531,8,-1,13.332326765864625,5.0,0.0,45.0,0,2
1530,2.15,396.2867736816406,83.74018096923828,-0.0038649176713079214,-89.78197479248047,0.021392151713371277,0.002179812639951706,7.30276854535931,0.8500000238418579,0.0,-0.0023620540741831064,2,-0.009059682488441467,-0.5563735961914062,3.2615658710710704e-05,0.0007636467296590218,0.0035544103486271645,2.7961344718933105,0.7013863325119019,0.05697226524353027,9.810834884643555,0.0001605429279152304,8.925297152018175e-05,-0.009326525963842869,0.003797939047217369,396.29132080078125,83.74302673339844,8,-1,13.696792321131042,5.0,0.0,45.0,0,2
1531,2.2,396.287841796875,83.37358093261719,-0.003865146543830633,-89.78900146484375,0.021419472992420197,0.001663974835537374,7.350455121531714,0.8500000238418579,0.0,-0.0019247045274823904,2,0.0011441856622695923,-0.9537315368652344,5.283355858409777e-05,0.0007464323805997184,0.003574871651596421,2.7961344718933105,0.8560139536857605,-0.043424010276794434,9.808977127075195,0.00018475757678970695,-5.5873621022328734e-05,0.001860857242718339,0.003686444601044059,396.2917785644531,83.37642669677734,8,-1,14.063393913763617,5.0,0.0,45.0,0,2
1532,2.25,396.2887268066406,83.00514221191406,-0.0038643074221909046,-89.80194091796875,0.021330678835511208,0.0014220884768292308,7.382524111636154,0.8500000238418579,0.0,-0.002817444270476699,2,-0.043496619910001755,-0.6414794921875,4.0245053241960704e-05,0.0007484312143458666,0.0035539911792012904,2.796135187149048,0.73847496509552,-0.052783966064453125,9.809959411621094,2.1697611373383552e-05,4.985447594663128e-05,-0.008156061172485352,0.003469892079010606,396.2922058105469,83.00798797607422,8,-1,14.431833697385908,5.0,0.0,45.0,0,2
1533,2.3000000000000003,396.28961181640625,82.63470458984375,-0.003864078549668193,-89.80929565429688,0.021330678835511208,0.0013575585326179862,7.427689328363718,0.8500000238418579,0.0,-0.002217588946223259,2,-0.011474844068288803,-0.9033298492431641,1.6593934560660273e-05,0.0007574434036982951,0.0035503794577453336,2.796135425567627,0.8060811758041382,-0.022903263568878174,9.809621810913086,1.7561706044944003e-05,-5.6234868679894134e-05,0.0013943748781457543,0.0033296358305960894,396.29266357421875,82.6375503540039,8,-1,14.802272376639834,5.0,0.0,45.0,0,2
1534,2.35,396.2904968261719,82.262451171875,-0.0038628578186035156,-89.82186889648438,0.021255547180771828,0.0013905863743275404,7.458231308364146,0.8500000238418579,0.0,-0.0022686540614813566,2,-0.018143150955438614,-0.6108760833740234,1.3160706657799892e-05,0.0007389239904870925,0.003548185128385147,2.7961366176605225,0.7311979532241821,0.017499983310699463,9.810043334960938,-3.2874217140488327e-05,6.628150003962219e-05,-0.008712590672075748,0.003107404103502631,396.2931213378906,82.26529693603516,8,-1,15.17452684663543,5.0,0.0,45.0,0,2
1535,2.4000000000000004,396.2913513183594,81.88823699951172,-0.00386186596006155,-89.82748413085938,0.021207736805081367,0.0014139859704300761,7.50042572664112,0.8500000238418579,0.0,-0.0018397342646494508,2,-0.003772936761379242,-0.8438968658447266,-1.5830992197152227e-05,0.0007387600544787742,0.003548679922845834,2.796137571334839,0.7835973501205444,-0.012590527534484863,9.809632301330566,3.7601218991767382e-06,8.04334149506758e-07,0.0023091163020581007,0.003009968902915716,396.2935485839844,81.89108276367188,8,-1,15.548741994584352,5.0,0.0,45.0,0,2
1536,2.45,396.29205322265625,81.51216888427734,-0.003861026605591178,-89.83824157714844,0.021105283871293068,0.0014596603577956557,7.535537143586926,0.8500000238418579,0.0,-0.001966967945918441,2,-0.01546347513794899,-0.7022571563720703,-1.3542176020564511e-05,0.0007425057703399599,0.0035669206890461946,2.7961385250091553,0.7459129691123962,-0.07234573364257812,9.809723854064941,-3.275521885370836e-05,4.853182326769456e-05,-0.007243155501782894,0.002826133044436574,396.29400634765625,81.5150146484375,8,-1,15.924810764845294,5.0,0.0,45.0,0,2
1537,2.5,396.2926940917969,81.13417053222656,-0.0038604927249252796,-89.84326171875,0.021043810993433,0.0014663345646113157,7.576815790227994,0.8500000238418579,0.0,-0.0015981531469151378,2,-0.0015186704695224762,-0.8255767822265625,5.340575626178179e-06,0.000732198554568489,0.00356058482985853,2.7961392402648926,0.7760180830955505,-0.032364070415496826,9.809558868408203,1.1467262083897367e-05,-5.864276317879558e-06,0.0023182895965874195,0.002762136748060584,396.2944641113281,81.13701629638672,8,-1,16.302809660169554,5.0,0.0,45.0,0,2
1538,2.5500000000000003,396.29339599609375,80.75442504882812,-0.003858814248815179,-89.85336303710938,0.02088671736419201,0.0014147496549412608,7.608796054816772,0.8500000238418579,0.0,-0.0014517527306452394,2,-0.0023880042135715485,-0.6396102905273438,-1.1825563888123725e-05,0.0007213504366175627,0.0035908598214510886,2.796140670776367,0.7086507081985474,0.027953386306762695,9.810134887695312,1.7260725144296885e-05,7.671061030123383e-05,-0.00763125903904438,0.002583742141723633,396.294921875,80.75726318359375,8,-1,16.682555792251442,5.0,0.0,45.0,0,2
1539,2.6,396.29400634765625,80.37279510498047,-0.0038572882767766714,-89.85670471191406,0.02072962373495102,0.0013144954573363066,7.645979431774389,0.8500000238418579,0.0,-0.00133781589102,2,-0.003967583179473877,-0.7436752319335938,-5.340575626178179e-06,0.0007216215338228231,0.003566939222624154,2.796142101287842,0.7509718537330627,-0.03209429979324341,9.809650421142578,4.3930493120569736e-05,7.231169729493558e-05,0.0031438609585165977,0.0025135823525488377,396.2953796386719,80.37564086914062,8,-1,17.064186224175046,5.0,0.0,45.0,0,2
1540,2.6500000000000004,396.294677734375,79.98936462402344,-0.0038556098006665707,-89.865234375,0.02055886760354042,0.0012118850136175752,7.683556969976282,0.8500000238418579,0.0,-0.00129096454475075,2,-0.006335005164146423,-0.7515621185302734,-7.057187758618966e-06,0.0007092771186467642,0.0035401963693827893,2.7961440086364746,0.728518009185791,-0.0019127726554870605,9.809974670410156,2.588742063380778e-05,5.831688758917153e-05,-0.0065133473835885525,0.0023670317605137825,396.29583740234375,79.9922103881836,8,-1,17.44761729293065,5.0,0.0,45.0,0,2
1541,2.7,396.2953186035156,79.60411071777344,-0.0038540076930075884,-89.8680648803711,0.02038128301501274,0.0010541228111833334,7.720890237672652,0.8500000238418579,0.0,-0.0009806097950786352,2,0.0037698447704315186,-0.7466602325439453,5.912779670325108e-06,0.0007250068145193689,0.003559604898731028,2.7961456775665283,0.7309876084327698,-0.0018556714057922363,9.809584617614746,6.819373811595142e-05,4.1672894440125674e-05,0.0028468454256653786,0.002316121943295002,396.2962951660156,79.60694885253906,8,-1,17.832871732222582,5.0,0.0,45.0,0,2
1542,2.75,396.29595947265625,79.21710968017578,-0.0038517951034009457,-89.87637329101562,0.0201558880507946,0.0009064300102181733,7.753243550902754,0.8500000238418579,0.0,-0.0010773526737466455,2,-0.0065352581441402435,-0.6470775604248047,1.7166121324407868e-06,0.0006981053044033627,0.0035720827401608457,2.796147584915161,0.7009711265563965,0.00833982229232788,9.809910774230957,3.7917299778200686e-05,9.309194138040766e-05,-0.0071927220560610294,0.002156191971153021,396.2967529296875,79.2199478149414,8,-1,18.21987330045573,5.0,0.0,45.0,0,2
1543,2.8000000000000003,396.2965393066406,78.82838439941406,-0.0038494300097227097,-89.87841796875,0.019903169944882393,0.0007794186240062118,7.787533964942925,0.8341350555419922,0.0,-0.0009459785069338977,2,-0.004293043166399002,-0.6858158111572266,2.2888179955771193e-05,0.0007070543083165142,0.003562425819532847,2.7961502075195312,0.6983639001846313,-0.02160811424255371,9.809992790222168,4.6333087084349245e-05,0.0001053746382240206,0.003527687396854162,0.002128368942067027,396.2972412109375,78.83123016357422,8,-1,18.608599013665863,5.0,0.0,45.0,0,2
1544,2.85,396.2972106933594,78.43795013427734,-0.003846683306619525,-89.88616943359375,0.019616302102804184,0.0007083486416377127,7.821828350943005,0.784643292427063,0.0,-0.0009834838565438986,2,-0.008693374693393707,-0.6859016418457031,-4.0054283090285026e-06,0.0007087272844521648,0.003562075114559725,2.7961528301239014,0.6858970522880554,0.018522799015045166,9.809844970703125,7.886883395258337e-06,0.00011025591811630875,-0.006455609574913979,0.0019834081176668406,396.2976989746094,78.4407958984375,8,-1,18.99903385605698,5.0,0.0,45.0,0,2
1545,2.9000000000000004,396.2978515625,78.04591369628906,-0.00384317385032773,-89.88812255859375,0.019254302605986595,0.0005763039225712419,7.854580196474417,0.7352391481399536,0.0,-0.0004775827983394265,2,0.010584108531475067,-0.6550216674804688,-3.528594970703125e-05,0.000700907189143845,0.003571407084958686,2.796156644821167,0.643276035785675,-0.011348426342010498,9.810175895690918,6.434715760406107e-05,0.00012315758795011789,0.0032883821986615658,0.0019531252328306437,396.29815673828125,78.04875946044922,8,-1,19.391070817865167,5.0,0.0,45.0,0,2
1546,2.95,396.2984924316406,77.65242767333984,-0.003838062286376953,-89.89608764648438,0.018721546977758408,0.0005258587189018726,7.880318519214462,0.688130795955658,0.0,-0.0009825967717915773,2,-0.01779269427061081,-0.5147933959960938,8.201600394386332e-06,0.00069583184933883,0.0035684874241499556,2.796161651611328,0.5882408618927002,0.018848955631256104,9.810356140136719,-1.1454263585619628e-05,0.00022128867567516863,-0.007297573611140251,0.0018269814318045974,396.29864501953125,77.6552734375,8,-1,19.784557362704565,5.0,0.0,45.0,0,2
1547,3.0,396.2991027832031,77.25759887695312,-0.0038312720134854317,-89.89778137207031,0.01801120862364769,0.0004989064764231443,7.906516532534695,0.6513860821723938,0.0,-0.0005190677475184202,2,0.001817699521780014,-0.5239582061767578,-8.773806257522665e-06,0.0007095807433143898,0.0035752310266446534,2.796168804168701,0.545511782169342,-0.04105311632156372,9.8106107711792,1.9232917111366987e-05,0.0002815503685269505,0.0038244337774813175,0.0017940601101145148,396.2991027832031,77.26043701171875,8,-1,20.17938663085121,5.0,0.0,45.0,0,2
1548,3.0500000000000003,396.29974365234375,76.86150360107422,-0.0038231085054576397,-89.90518188476562,0.017143774777650833,0.0004337495192885399,7.931307000376236,0.6136234402656555,0.0,-0.0003670363512355834,2,0.002872813493013382,-0.4958057403564453,3.2424918572360184e-06,0.0006994601394936909,0.0035761503602525155,2.7961766719818115,0.5080009698867798,0.03908994793891907,9.810240745544434,1.9404920749366283e-05,0.00033132563112303615,-0.00652734562754631,0.0016558425268158317,396.2995910644531,76.86434936523438,8,-1,20.57548242518238,5.0,0.0,45.0,0,2
1549,3.1,396.30035400390625,76.4642333984375,-0.003813571762293577,-89.90606689453125,0.016139736399054527,0.00022997945779934525,7.955807879617147,0.57797771692276,0.0,0.00017573311924934387,2,0.01982184126973152,-0.4899883270263672,1.7738344467943534e-05,0.0006793444642380808,0.0035791763881059466,2.7961864471435547,0.4776809513568878,-0.050818055868148804,9.810568809509277,9.617107571102679e-05,0.00034700537798926234,0.003918370697647333,0.0016558425268158317,396.3000793457031,76.46707153320312,8,-1,20.97275309667985,5.0,0.0,45.0,0,2
1550,3.1500000000000004,396.3009948730469,76.0659408569336,-0.003802661783993244,-89.91301727294922,0.014992264099419117,0.0001395002764184028,7.973823962649267,0.5426949858665466,0.0,-0.0006155604496598244,2,-0.02232622355222702,-0.3603553771972656,4.57763690064894e-06,0.000696110682917085,0.0035575557172071513,2.7961971759796143,0.4151272475719452,0.03934985399246216,9.810282707214355,-6.516027497127652e-06,0.000423259538365528,-0.007023017853498459,0.0015440810238942504,396.300537109375,76.06878662109375,8,-1,21.371046153775872,5.0,0.0,45.0,0,2
1551,3.2,396.3016052246094,75.66668701171875,-0.0037906074430793524,-89.91329193115234,0.013742339797317982,5.35142607986927e-05,7.992083937800604,0.5170506834983826,0.0,0.00017573311924934387,2,0.012965723872184753,-0.36518096923828125,1.9073468138230965e-06,0.0006644745402968079,0.0035617662326162683,2.7962093353271484,0.387322336435318,-0.02059173583984375,9.810454368591309,4.747055936604738e-05,0.00045260353363119066,0.004560626577585936,0.0015049839857965708,396.301025390625,75.66952514648438,8,-1,21.77030046552199,5.0,0.0,45.0,0,2
1552,3.25,396.30224609375,75.26656341552734,-0.0037782478611916304,-89.9201889038086,0.012437773868441582,0.0001679528650129214,8.008557129572496,0.49073362350463867,0.0,-0.000870533986017108,2,-0.035654883831739426,-0.3295135498046875,1.3351473171496764e-06,0.0006838794417581371,0.003552163796828588,2.7962214946746826,0.3521570861339569,0.019483715295791626,9.810002326965332,-8.883030386641622e-05,0.0004700669669546187,-0.00682448223233223,0.001423572306521237,396.301513671875,75.2694091796875,8,-1,22.170424574946054,5.0,0.0,45.0,0,2
1553,3.3000000000000003,396.3028564453125,74.86564636230469,-0.00376581191085279,-89.92072296142578,0.011133207939565182,0.00025707841268740594,8.025496509859032,0.46708738803863525,0.0,0.0002485241857357323,2,0.017869658768177032,-0.3387641906738281,-3.108978125965223e-05,0.0006875275179853662,0.003564040095651991,2.796234130859375,0.31937819719314575,-0.020483314990997314,9.810016632080078,-8.349015843123198e-07,0.00044109136797487736,0.004196265712380409,0.0013810680247843266,396.3019714355469,74.86848449707031,8,-1,22.57134209276458,5.0,0.0,45.0,0,2
1554,3.35,396.3033752441406,74.46403503417969,-0.0037535284645855427,-89.9275131225586,0.009842301718890667,0.00048097094986587763,8.038079841541185,0.44266265630722046,0.0,-0.000870533986017108,2,-0.03626607358455658,-0.2517127990722656,4.959103989676805e-06,0.000662975568870516,0.0035615538900253926,2.796246290206909,0.27917227149009705,-0.010433375835418701,9.809796333312988,-0.0001198439858853817,0.0004443211655598134,-0.0069414060562849045,0.0012918708380311728,396.3024597167969,74.46687316894531,8,-1,22.97295375597987,5.0,0.0,45.0,0,2
1555,3.4000000000000004,396.30389404296875,74.06180572509766,-0.003741474123671651,-89.92736053466797,0.008571887388825417,0.000636969693005085,8.049136811396588,0.4247436821460724,0.0,0.0002485241857357323,2,0.01710798591375351,-0.22111892700195312,2.7465821403893642e-05,0.0006675968525794115,0.0035570567468819598,2.7962584495544434,0.24894209206104279,-0.0204228013753891,9.810041427612305,-1.942037488333881e-05,0.0004367188666947186,0.004828060511499643,0.0012918708380311728,396.3029479980469,74.06464385986328,8,-1,23.37518339963736,5.0,0.0,45.0,0,2
1556,3.45,396.3045349121094,73.65904998779297,-0.003729877294972539,-89.93273162841797,0.007369773928076029,0.0006743310950696468,8.058789804218492,0.4088878929615021,0.0,0.0,2,-0.0014530308544635773,-0.19306182861328125,-7.629387255292386e-07,0.0006517794977138306,0.0035656258217407447,2.7962701320648193,0.20880860090255737,0.03964093327522278,9.809660911560059,-1.0375020792707801e-05,0.00041983526898548007,-0.006264130584895611,0.0011960399569943547,396.3034362792969,73.6618881225586,8,-1,23.777939646820563,5.0,0.0,45.0,0,2
1557,3.5,396.30511474609375,73.25582885742188,-0.0037193489260971546,-89.93132781982422,0.006249622907489538,0.0006770931067876518,8.068310159312382,0.3950486481189728,0.0,0.0,2,-0.0027177296578884125,-0.19041061401367188,-8.773804438533261e-06,0.000666294194103337,0.003559508299448147,2.7962803840637207,0.18604588508605957,-0.02033764123916626,9.809510231018066,4.591798642650247e-06,0.0003770068287849426,0.004927084781229496,0.0011960399569943547,396.3039245605469,73.25867462158203,8,-1,24.181161194093512,5.0,0.0,45.0,0,2
1558,3.5500000000000003,396.3056945800781,72.85220336914062,-0.0037095833104103804,-89.93574523925781,0.005218264181166887,0.0006643957458436489,8.075788645678651,0.3813382387161255,0.0,0.0,2,-0.0036479905247688293,-0.14957427978515625,-3.4332288123550825e-06,0.0006317043914248177,0.0035665990799448426,2.796290159225464,0.16089332103729248,-0.0002931654453277588,9.8097505569458,4.251283826306462e-06,0.0003423379675950855,-0.005959311034530401,0.001091830083169043,396.3044128417969,72.85504150390625,8,-1,24.58478709885896,5.0,0.0,45.0,0,2
1559,3.6,396.30609130859375,72.44825744628906,-0.003700580447912216,-89.93340301513672,0.004275698214769363,0.0006364911096170545,8.081633515483274,0.37066325545310974,0.0,0.0,2,-0.003278478980064392,-0.11690139770507812,2.670290086825844e-06,0.0006628295248722202,0.00354709736857278,2.796299457550049,0.12815061211585999,-0.07025711238384247,9.8097562789917,1.3071432476863265e-05,0.00031216192292049527,0.005412214435636997,0.0011451210593804717,396.30487060546875,72.45109558105469,8,-1,24.98873321653051,5.0,0.0,45.0,0,2
1560,3.6500000000000004,396.3065185546875,72.04402160644531,-0.0036927221808582544,-89.93798065185547,0.0034492453560233116,0.0007457907195203006,8.086668368437461,0.36232078075408936,0.0,-0.0006155604496598244,2,-0.027239061892032623,-0.10072708129882812,1.945495569088962e-05,0.0006414222244210286,0.0035534864802953337,2.796307325363159,0.1131012961268425,0.00975053757429123,9.809524536132812,-6.45546242594719e-05,0.00027735819458030164,-0.006209316663444042,0.001091830083169043,396.30535888671875,72.04685974121094,8,-1,25.392969282157274,5.0,0.0,45.0,0,2
1561,3.7,396.3068542480469,71.63954162597656,-0.003685855772346258,-89.9359130859375,0.002738905604928732,0.0007904720259830356,8.091447871632392,0.35510680079460144,0.0,0.00017573311924934387,2,0.012230314314365387,-0.09557723999023438,-9.91821252682712e-06,0.0006495670166478901,0.003567753379474412,2.796314001083374,0.09543531388044357,-0.03024156391620636,9.8094482421875,1.1250158422626555e-05,0.0002326484100194648,0.0052759237587451935,0.001091830083169043,396.30584716796875,71.64238739013672,8,-1,25.79744940192836,5.0,0.0,45.0,0,2
1562,3.75,396.3072814941406,71.23487091064453,-0.003680057357996702,-89.9398422241211,0.0021378491073846817,0.0007316298433579504,8.095250149742943,0.348233163356781,0.0,0.0,2,-0.00035140663385391235,-0.07604598999023438,-4.76837158203125e-06,0.0006471023051979693,0.003569762480219081,2.7963197231292725,0.0779079720377922,0.03979334607720375,9.809684753417969,2.5824541808106005e-05,0.00019282029825262725,-0.005834233947098255,0.001035801018588245,396.30633544921875,71.23771667480469,8,-1,26.20212034280077,5.0,0.0,45.0,0,2
1563,3.8000000000000003,396.3076477050781,70.83002471923828,-0.003675556043162942,-89.93712615966797,0.0016460755141451955,0.000635676842648536,8.098219852457655,0.3428021967411041,0.0,0.0,2,-0.0006883963942527771,-0.05939483642578125,-1.0871885933738668e-05,0.0006318663513674199,0.00356217564798853,2.7963244915008545,0.06523788720369339,-0.040180131793022156,9.809452056884766,3.7609468563459814e-05,0.00015838695981074125,0.005505745764821768,0.001091830083169043,396.30682373046875,70.83287048339844,8,-1,26.60696669983835,5.0,0.0,45.0,0,2
1564,3.85,396.30810546875,70.425048828125,-0.003671741345897317,-89.9416732788086,0.0012430943315848708,0.0007292799418792129,8.10064523241239,0.3385636806488037,0.0,-0.000870533986017108,2,-0.03532515838742256,-0.048542022705078125,1.9645689462777227e-05,0.0006279028349840578,0.0035646806448898856,2.796328067779541,0.052753519266843796,0.03982168436050415,9.809686660766602,-6.896712875459343e-05,0.00012706199777312577,-0.006279086694121361,0.001035801018588245,396.30731201171875,70.42789459228516,8,-1,27.011942849667662,5.0,0.0,45.0,0,2
1565,3.9000000000000004,396.3084716796875,70.01995086669922,-0.0036686896346509457,-89.93963623046875,0.0009357358794659376,0.0007430544937960804,8.10290158717179,0.33509591221809387,0.0,0.0002485241857357323,2,0.01979183405637741,-0.045108795166015625,-1.926422191900201e-05,0.0006339517906837243,0.003572305590850224,2.7963311672210693,0.045118045061826706,-0.04017460718750954,9.80976390838623,2.991969813592732e-05,9.5068768132478e-05,0.005336851812899113,0.001035801018588245,396.30780029296875,70.02278900146484,8,-1,27.41704097662183,5.0,0.0,45.0,0,2
1566,3.95,396.30889892578125,69.61474609375,-0.003666477045044303,-89.94356536865234,0.0007103396346792579,0.0006251189042814076,8.104646893763372,0.3318534195423126,0.0,0.0,2,0.001683104783296585,-0.03490447998046875,1.7166121324407868e-06,0.0006295132893916403,0.0035657920113764978,2.7963335514068604,0.03766098991036415,0.03985602408647537,9.809687614440918,4.687769978772849e-05,6.945751374587417e-05,-0.005856566596776247,0.0009765625,396.30828857421875,69.61759185791016,8,-1,27.82224597481417,5.0,0.0,45.0,0,2
1567,4.0,396.3092346191406,69.20948028564453,-0.003664798568934202,-89.94021606445312,0.0005464151035994291,0.00032937171636149287,8.10607206151901,0.3293636441230774,0.0,0.0006155604496598244,2,0.024837572127580643,-0.028476715087890625,1.926422191900201e-05,0.0006141038923200197,0.003550831684323028,2.796334981918335,0.030030934140086174,-0.0600876547396183,9.809686660766602,0.0001319172151852399,4.841037298319861e-05,0.005853425711393356,0.001035801018588245,396.30877685546875,69.21231842041016,8,-1,28.227511921951862,5.0,0.0,45.0,0,2
1568,4.05,396.3096923828125,68.80414581298828,-0.003663883078843355,-89.94320678710938,0.0004371320828795433,8.03058355813846e-05,8.107163196216002,0.3273249566555023,0.0,-0.00017573311924934387,2,-0.014889836311340332,-0.021839141845703125,-2.5176999770337716e-05,0.0006065429837878402,0.0035579871590598867,2.7963359355926514,0.022624392062425613,0.04996391758322716,9.809765815734863,6.150383705971763e-05,3.2754207495599985e-05,-0.0056442865170538425,0.001035801018588245,396.30926513671875,68.8069839477539,8,-1,28.63284665309527,5.0,0.0,45.0,0,2
1569,4.1000000000000005,396.3100280761719,68.39875030517578,-0.0036632728297263384,-89.9399642944336,0.00036883019492961466,-6.103514533606358e-05,8.108184461799638,0.32576921582221985,0.0,0.0,2,-0.002266019582748413,-0.020427703857421875,-2.670290086825844e-06,0.000616669808782886,0.0035530077487771084,2.7963366508483887,0.022531704977154732,-0.030013104900717735,9.809844017028809,4.196994996163994e-05,1.876783062471077e-05,0.005645187571644783,0.001035801018588245,396.30975341796875,68.4015884399414,8,-1,29.03824229989551,5.0,0.0,45.0,0,2
1570,4.15,396.3104553222656,67.99332427978516,-0.003662967588752508,-89.94329833984375,0.0003278490621596575,-0.00015258787607308477,8.108924427816739,0.3243025243282318,0.0,0.0,2,-0.001634061336517334,-0.014801025390625,2.1362306142691523e-05,0.0006211058823936378,0.003558225065934418,2.7963368892669678,0.015095707029104233,0.04001126065850258,9.809844017028809,2.5224824639735743e-05,1.0202659723290708e-05,-0.005673677660524845,0.0009765625,396.31024169921875,67.99616241455078,8,-1,29.443668550406333,5.0,0.0,45.0,0,2
1571,4.2,396.3108215332031,67.58786010742188,-0.003662815084680915,-89.9400863647461,0.00031418868456967175,-0.000213623046875,8.109583374128164,0.32324978709220886,0.0,0.0,2,-0.000820457935333252,-0.013179779052734375,-1.831054760259576e-05,0.000579836299715099,0.0035571868602608196,2.796337127685547,0.015011966228485107,-0.03997908905148506,9.810078620910645,1.2772214176948182e-05,3.7562331272056326e-06,0.005633126012980938,0.001035801018588245,396.31072998046875,67.5906982421875,8,-1,29.849132888148496,5.0,0.0,45.0,0,2
1572,4.25,396.3112487792969,67.18236541748047,-0.003662815084680915,-89.94341278076172,0.0003073585103265941,-0.00021362307597883046,8.11003251466406,0.3223028779029846,0.0,0.0,2,-0.0007764995098114014,-0.008983612060546875,1.449584942747606e-05,0.000600584949933942,0.00356449572783191,2.796337127685547,0.010082244873046875,0.030026685446500778,9.809844017028809,1.7657695252637495e-06,1.2046621122863144e-06,-0.005692753009498119,0.0009765625,396.31121826171875,67.1852035522461,8,-1,30.254627803171978,5.0,0.0,45.0,0,2
1573,4.3,396.31158447265625,66.77684783935547,-0.003662662347778678,-89.93963623046875,0.0003073585103265941,-0.00036621090839616954,8.110491586208395,0.32166588306427,0.0,0.0006155604496598244,2,0.023850034922361374,-0.0091552734375,1.1444080882938579e-06,0.0006075294544980396,0.003562387284401885,2.796337127685547,0.007521016523241997,-0.02994517982006073,9.8100004196167,7.217729580588639e-05,-9.508294169791043e-07,0.0059743416495621204,0.001035801018588245,396.31170654296875,66.77969360351562,8,-1,30.66014552024288,5.0,0.0,45.0,0,2
1574,4.3500000000000005,396.31201171875,66.3713150024414,-0.0036627387162297964,-89.94237518310547,0.0003073585103265941,-0.00042724606464616954,8.11077683812206,0.32100456953048706,0.0,-0.00017573311924934387,2,-0.015130750834941864,-0.0057220458984375,1.5258774510584772e-06,0.0005983126738390355,0.0035642295356309215,2.796337127685547,0.01006267499178648,0.010063090361654758,9.8100004196167,-2.8078632112737978e-06,-1.8328319129068404e-07,-0.005562009289860725,0.001035801018588245,396.3121643066406,66.37416076660156,8,-1,31.06567858221785,5.0,0.0,45.0,0,2
1575,4.4,396.3123779296875,65.96576690673828,-0.003662815084680915,-89.93891143798828,0.00031418868456967175,-0.000396728515625,8.11108189763823,0.3206021189689636,0.0,0.0,2,-0.002169013023376465,-0.006103515625,-9.72747784544481e-06,0.0005797383215885282,0.003575177767128461,2.796337127685547,0.0025644544512033463,0.01006525568664074,9.8100004196167,-1.97057979676174e-05,5.11427060700953e-08,0.005713106133043766,0.001091830083169043,396.3126525878906,65.9686050415039,8,-1,31.471226843265633,5.0,0.0,45.0,0,2
1576,4.45,396.31280517578125,65.56021118164062,-0.003662586212158203,-89.94207000732422,0.0003073585103265941,-0.0003051757230423391,8.111244900766428,0.32016149163246155,0.0,0.0,2,-0.0014176219701766968,-0.003261566162109375,-6.294249033089727e-06,0.0005825485763942072,0.0035673801357500746,2.796337127685547,0.007562729530036449,0.010044662281870842,9.8100004196167,-3.01978307106765e-05,2.4139662855304778e-06,-0.00564038660377264,0.001035801018588245,396.3131408691406,65.56304931640625,8,-1,31.876782793411493,5.0,0.0,45.0,0,2
1577,4.5,396.3131408691406,65.1546401977539,-0.0036627387162297964,-89.93878173828125,0.000300528306979686,-0.00021362301777116954,8.111462306895135,0.31993335485458374,0.0,0.0,2,-0.0005981326103210449,-0.0043487548828125,1.9645689462777227e-05,0.00057712609628019,0.0035621801931247994,2.796337127685547,1.940131187438965e-05,-0.029963405802845955,9.8100004196167,-3.266691419412382e-05,3.279106749687344e-06,0.005661345086991787,0.001091830083169043,396.3136291503906,65.15748596191406,8,-1,32.282353916225816,5.0,0.0,45.0,0,2
1578,4.55,396.3135986328125,64.74907684326172,-0.003662433475255966,-89.94207000732422,0.0002868679293897003,-0.0001220703125,8.111551920730088,0.31961750984191895,0.0,0.0,2,-0.0006003677845001221,-0.00179290771484375,0.0,0.0005702294370190388,0.0035555479126966614,2.796337604522705,0.0025895535945892334,0.04001834988594055,9.810078620910645,-3.303535777376965e-05,5.437068466562778e-06,-0.00567528884857893,0.001035801018588245,396.3141174316406,64.75192260742188,8,-1,32.687917529059284,5.0,0.0,45.0,0,2
1579,4.6000000000000005,396.3139343261719,64.3434829711914,-0.003662280971184373,-89.93891143798828,0.00026637734845280647,-3.0517585400957614e-05,8.111706404743474,0.31949588656425476,0.0,0.0,2,-0.00021284446120262146,-0.00308990478515625,-2.670285539352335e-06,0.0005659889319821948,0.0035742120927529314,2.796337604522705,0.010002952069044113,-0.04000541567802429,9.809922218322754,-2.9159582481952384e-05,6.032145392964594e-06,0.00563875213265419,0.001091830083169043,396.3146057128906,64.34632873535156,8,-1,33.09351154004936,5.0,0.0,45.0,0,2
1580,4.65,396.3143615722656,63.93789291381836,-0.003662052098661661,-89.94218444824219,0.0002458867966197431,4.0533934225095436e-05,8.111744528413023,0.31927016377449036,0.0,0.0,2,-0.0004456564784049988,-0.000762939453125,-1.6212467016885057e-05,0.0005613953756540373,0.003567502464875228,2.796337842941284,7.236935198307037e-05,0.029993044212460518,9.81015682220459,-2.47690113610588e-05,7.50463004806079e-06,-0.0056917704641819,0.001035801018588245,396.3150939941406,63.94073486328125,8,-1,33.499101822451564,5.0,0.0,45.0,0,2
1581,4.7,396.3147277832031,63.53230285644531,-0.003661899594590068,-89.93905639648438,0.00022539623023476452,0.00010062587534775957,8.111861821270638,0.31921935081481934,0.0,0.0,2,-0.00017296522855758667,-0.002346038818359375,-2.098081495205406e-06,0.0005788254169681638,0.003546969518802024,2.7963380813598633,-0.002493312582373619,-0.030014554038643837,9.809922218322754,-1.834849354054313e-05,7.19530726200901e-06,0.005627991631627083,0.001035801018588245,396.3155822753906,63.5351448059082,8,-1,33.90469204515217,5.0,0.0,45.0,0,2
1582,4.75,396.3151550292969,63.126712799072266,-0.0036616704892367125,-89.94237518310547,0.00020490566384978592,0.00014408462448045611,8.111870380397923,0.31904807686805725,0.0,0.0,2,-0.0004599057137966156,-0.000171661376953125,2.1171566913835704e-05,0.0005677082866958561,0.003553772584309913,2.7963380813598633,0.002565249800682068,0.029972799122333527,9.809922218322754,-1.3105427569826134e-05,7.751606972306035e-06,-0.005699251778423786,0.001035801018588245,396.3160705566406,63.129554748535156,8,-1,34.31028232755437,5.0,0.0,45.0,0,2
1583,4.800000000000001,396.31549072265625,62.72112274169922,-0.003661517985165119,-89.93862915039062,0.00018441509746480733,2.4307111743837595e-05,8.111959452662724,0.31904083490371704,0.0,0.0006155604496598244,2,0.023967567831277847,-0.0017547607421875,-3.1852719985181466e-05,0.0005476934365202697,0.0035719790411486902,2.7963383197784424,-5.550682544708252e-07,-0.030004145577549934,9.81015682220459,7.028743857517838e-05,6.737762305419892e-06,0.005975589156150818,0.001091830083169043,396.3165588378906,62.72395706176758,8,-1,34.71587252384849,5.0,0.0,45.0,0,2
1584,4.8500000000000005,396.31591796875,62.31553649902344,-0.003661365481093526,-89.94133758544922,0.00016392453107982874,-6.103515261202119e-05,8.111949053971776,0.31890782713890076,0.0,-0.00017573311924934387,2,-0.015112850815057755,0.00019073486328125,2.5177003408316523e-05,0.000560102063991253,0.0035478503082646334,2.7963383197784424,-0.004941215738654137,0.030015550553798676,9.809844017028809,6.265352567424998e-06,6.544494226545794e-06,-0.005566298961639404,0.001035801018588245,396.3170471191406,62.3183708190918,8,-1,35.12145899155554,5.0,0.0,45.0,0,2
1585,4.9,396.31634521484375,61.90994644165039,-0.0036612891126424074,-89.93728637695312,0.000150264153489843,-0.00021362303232308477,8.112021856025159,0.31892770528793335,0.0,0.0006155604496598244,2,0.021974388509988785,-0.001430511474609375,4.196167537884321e-06,0.0005605073982212893,0.0035550282938639835,2.7963387966156006,0.005025725811719894,3.1103845685720444e-05,9.81015682220459,7.363637996604666e-05,4.884765075985342e-06,0.00606562988832593,0.001091830083169043,396.3175354003906,61.91278076171875,8,-1,35.52704927395774,5.0,0.0,45.0,0,2
1586,4.95,396.3168029785156,61.50435256958008,-0.0036610602401196957,-89.93981170654297,0.00013660377589985728,-0.000274658203125,8.111999925605206,0.3188179135322571,0.0,-0.00017573311924934387,2,-0.016095638275146484,0.00041961669921875,-7.438661668857094e-06,0.000560319592480598,0.0035507604710363406,2.7963387966156006,3.3892691135406494e-05,0.010047019459307194,9.809844017028809,-5.223087100603152e-07,4.573864316625986e-06,-0.005505439825356007,0.001035801018588245,396.3180236816406,61.5071907043457,8,-1,35.932643404349896,5.0,0.0,45.0,0,2
1587,5.0,396.3171691894531,61.09876251220703,-0.0036610602401196957,-89.93624877929688,0.00012977358710486442,-0.000244140625,8.112062719900873,0.31885549426078796,0.0,0.0,2,-0.00264069065451622,-0.00125885009765625,-1.983642505365424e-05,0.0005608547586302619,0.003574430402197278,2.7963387966156006,-1.1159107089042664e-05,-0.029958177357912064,9.8100004196167,-1.5852392607484944e-05,2.7699406928149983e-06,0.005754757672548294,0.001091830083169043,396.3185119628906,61.10160446166992,8,-1,36.3382336270505,5.0,0.0,45.0,0,2
1588,5.050000000000001,396.31756591796875,60.69316101074219,-0.0036609077360481024,-89.93930053710938,0.00012294339830987155,-0.00018310548330191523,8.112031158776214,0.3187607228755951,0.0,0.0,2,-0.0016210414469242096,0.000629425048828125,2.6512143449508585e-05,0.0005533649749110471,0.0035673300749088283,2.7963390350341797,0.0025316420942544937,0.010028696618974209,9.810078620910645,-2.3894242985988967e-05,2.3328666429733858e-06,-0.005613970570266247,0.001091830083169043,396.3190002441406,60.69600296020508,8,-1,36.743835322540114,5.0,0.0,45.0,0,2
1589,5.1000000000000005,396.3179931640625,60.28755569458008,-0.003660831367596984,-89.93533325195312,0.00011611320951487869,-0.00027465823222883046,8.112087854651293,0.3188105523586273,0.0,0.0006155604496598244,2,0.02350684255361557,-0.00110626220703125,-2.0217894416418858e-05,0.0005497772678095905,0.0035673903472414562,2.7963390350341797,0.002531164325773716,0.010044198483228683,9.809922218322754,5.194169716560282e-05,6.949994713068008e-07,0.00603395514190197,0.0011451210593804717,396.3194885253906,60.2903938293457,8,-1,37.14944086372291,5.0,0.0,45.0,0,2
1590,5.15,396.3185119628906,59.8819580078125,-0.0036609077360481024,-89.93795013427734,0.00011611320951487869,-0.000274658203125,8.112051653898146,0.3187239170074463,0.0,-0.00017573311924934387,2,-0.015221219509840012,0.000705718994140625,2.5367738999193534e-05,0.0005329092538537309,0.003563658608640292,2.7963390350341797,-0.0024476293474435806,0.03004971332848072,9.8100004196167,-1.552722642372828e-05,6.039972504368052e-07,-0.005526852793991566,0.0011451210593804717,396.3199768066406,59.88479232788086,8,-1,37.55503888228739,5.0,0.0,45.0,0,2
1591,5.2,396.3190002441406,59.47635269165039,-0.003660983871668577,-89.93351745605469,0.00011611320951487869,-0.00042724600643850863,8.112102299421156,0.3187805712223053,0.0,0.000870533986017108,2,0.032032039016485214,-0.000972747802734375,-5.5313148550339974e-06,0.000517213034060208,0.0035616794982429633,2.7963390350341797,0.002508276142179966,-0.00992974080145359,9.8100004196167,8.345380774699152e-05,-7.084017852321267e-07,0.006238704081624746,0.0011451210593804717,396.3204650878906,59.479190826416016,8,-1,37.96064449235405,5.0,0.0,45.0,0,2
1592,5.25,396.3196105957031,59.07075119018555,-0.003660831367596984,-89.93572235107422,0.00011611320951487869,-0.00048828116268850863,8.112063690193523,0.3187035918235779,0.0,-0.0002485241857357323,2,-0.022044628858566284,0.000743865966796875,-9.91821252682712e-06,0.0005255532810265751,0.0035648733343409626,2.7963390350341797,-0.0024240240454673767,0.0500863716006279,9.8100004196167,-1.7806796677177772e-05,-4.823850758839399e-07,-0.005430541001260281,0.001091830083169043,396.3209533691406,59.0735969543457,8,-1,38.36624645304897,5.0,0.0,45.0,0,2
1593,5.300000000000001,396.320068359375,58.66514205932617,-0.0036609077360481024,-89.9320068359375,0.00011611320951487869,-0.00039672848652116954,8.11211498714853,0.31876417994499207,0.0,0.0,2,-0.0033392012119293213,-0.00102996826171875,8.773804438533261e-06,0.0005424279821784599,0.0035599416143420387,2.7963390350341797,0.0024724081158638,-0.03993500769138336,9.8100004196167,-3.6718338378705084e-05,-1.432141289114952e-06,0.005805743858218193,0.0011960399569943547,396.3214111328125,58.66798782348633,8,-1,38.771855842220475,5.0,0.0,45.0,0,2
1594,5.3500000000000005,396.3206481933594,58.259525299072266,-0.0036610602401196957,-89.93402099609375,0.00012294339830987155,-0.00048828125,8.112074161713457,0.31868571043014526,0.0,0.000870533986017108,2,0.0322626531124115,0.000858306884765625,1.7166166799142957e-06,0.0005133511566616378,0.00355078695564244,2.7963387966156006,0.005044076591730118,0.02007783018052578,9.809922218322754,6.50246292934753e-05,-9.456562111154199e-07,-0.005081265699118376,0.0011451210593804717,396.3218994140625,58.262367248535156,8,-1,39.17747301691396,5.0,0.0,45.0,0,2
1595,5.4,396.3211975097656,57.85390853881836,-0.003660983871668577,-89.92974090576172,0.00012977358710486442,-0.00048828122089616954,8.112120420688791,0.31874918937683105,0.0,-0.0002485241857357323,2,-0.021442025899887085,-0.00095367431640625,-2.1743777324445546e-05,0.0005215688069668621,0.003565573667215808,2.7963390350341797,-0.0024777783546596766,8.666841313242912e-05,9.81015682220459,-3.084529816987924e-05,-1.7326692614005879e-06,0.005898382514715195,0.0012448779307305813,396.3223876953125,57.85675048828125,8,-1,39.58309014913027,5.0,0.0,45.0,0,2
