frame,sim_time,x,y,z,yaw,pitch,roll,speed_mps,throttle,brake,steer,gear,acc_x,acc_y,acc_z,gnss_lat,gnss_lon,gnss_alt,imu_acc_x,imu_acc_y,imu_acc_z,imu_gyro_x,imu_gyro_y,imu_gyro_z,imu_compass,wp_x,wp_y,wp_road_id,wp_lane_id,odom_m,cloudiness,precipitation,sun_altitude,n_collisions,n_lane_invasions
120,0.0,211.4715118408203,129.55223083496094,-0.004185047000646591,-178.88275146484375,0.020183207467198372,-0.006591795943677425,5.477214077929321,0.8500000238418579,0.0,-0.0022201058454811573,2,-1.8870353698730469,-0.03161117434501648,0.008672905154526234,0.0011699585607935841,0.0018965559803292076,2.7958145141601562,1.2939932346343994,0.01596904546022415,9.818058013916016,-0.00018554127018433064,-0.00276882853358984,-0.00810294970870018,4.731888771057129,211.4716033935547,129.4640655517578,4,1,0.0,5.0,0.0,45.0,0,0
121,0.05,211.19552612304688,129.54714965820312,-0.004191837273538113,-178.8911895751953,0.02791498228907585,-0.005828857421875,5.554344675358219,0.8500000238418579,0.0,-0.0019077168544754386,2,-1.5423774719238281,-0.026854872703552246,0.004827308002859354,0.001171714628085583,0.00188369547942451,2.7958078384399414,1.814926028251648,-0.009031873196363449,9.812087059020996,-0.0003158288891427219,-0.0027255876921117306,0.000882478489074856,4.731741428375244,211.1956024169922,129.4639434814453,4,1,0.2760324886171257,5.0,0.0,45.0,0,0
122,0.1,210.9153594970703,129.5428009033203,-0.004188785329461098,-178.9195098876953,0.03539403900504112,-0.001190185546875,5.628634115970607,0.8500000238418579,0.0,-0.017733264714479446,2,-1.4944744110107422,0.5465655326843262,0.0015167240053415298,0.0011647257225112597,0.0018861818721837517,2.7958104610443115,1.6817089319229126,-0.24643728137016296,9.812718391418457,-0.002249870216473937,-0.0024327009450644255,-0.01655111089348793,4.7312469482421875,210.91542053222656,129.4638214111328,4,1,0.5562328633137379,5.0,0.0,45.0,0,0
123,0.15000000000000002,210.632080078125,129.5391387939453,-0.004171848297119141,-178.95277404785156,0.04132264107465744,0.00542624294757843,5.6784431749126725,0.8500000238418579,0.0,-0.012696292251348495,2,-0.9981632232666016,0.1552477478981018,-0.0012977607548236847,0.0011586928170441086,0.001902119351702453,2.795827627182007,1.2724803686141968,-0.26410043239593506,9.814764022827148,-0.0023025055415928364,-0.0016310446662828326,-0.012643437832593918,4.730666637420654,210.63214111328125,129.4636993408203,4,1,0.8395359523245504,5.0,0.0,45.0,0,0
124,0.2,210.345947265625,129.53570556640625,-0.004142856691032648,-178.9879608154297,0.045331962406635284,0.011411475017666817,5.759159673417598,0.8500000238418579,0.0,-0.012045190669596195,2,-1.615285873413086,0.07686547935009003,-0.003320311661809683,0.0011821554511215393,0.001885809310149452,2.795856237411499,1.1858144998550415,-0.12278062850236893,9.813728332519531,-0.001961712259799242,-0.0013531011063605547,-0.010615672916173935,4.730052471160889,210.34600830078125,129.46356201171875,4,1,1.125689361251467,5.0,0.0,45.0,0,0
125,0.25,210.0570068359375,129.5324249267578,-0.00410676933825016,-179.02044677734375,0.047469813376665115,0.016036681830883026,5.819769986896906,0.8500000238418579,0.0,-0.011381424963474274,2,-1.2127208709716797,0.04270046949386597,-0.004652596544474363,0.0011492534708144265,0.0019009448345723736,2.7958920001983643,1.1764196157455444,-0.11273471266031265,9.811810493469238,-0.0014188813511282206,-0.0008006547577679157,-0.011925666593015194,4.729485511779785,210.0570831298828,129.46343994140625,4,1,1.4146484145868834,5.0,0.0,45.0,0,0
126,0.30000000000000004,209.76478576660156,129.5292205810547,-0.004071063827723265,-179.05496215820312,0.04833041504025459,0.01904037967324257,5.847211925479874,0.8500000238418579,0.0,-0.01077647227793932,2,-0.5492305755615234,0.03612354397773743,-0.005327414255589247,0.0011562035867234192,0.0018822912039134683,2.7959277629852295,1.337104082107544,-0.08518750965595245,9.80884838104248,-0.0008082443382591009,0.00023813675215933472,-0.008810379542410374,4.728883266448975,209.76486206054688,129.4633026123047,4,1,1.7068870519968329,5.0,0.0,45.0,0,0
127,0.35000000000000003,209.47134399414062,129.52601623535156,-0.004022922366857529,-179.09356689453125,0.04642479494214058,0.020434189587831497,5.861842718664867,0.8500000238418579,0.0,-0.010136951692402363,2,-0.2929973602294922,0.03783702850341797,-0.0054044718854129314,0.0011648193858202669,0.0018813406752262605,2.795975923538208,0.552409827709198,-0.04211818426847458,9.814541816711426,-0.0002687585656531155,0.0012762824771925807,-0.01023294497281313,4.728209495544434,209.47140502929688,129.4631805419922,4,1,2.0003463194538376,5.0,0.0,45.0,0,0
128,0.4,209.17425537109375,129.52293395996094,-0.003986606374382973,-179.1253204345703,0.04445086792111397,0.02035527303814888,5.94055584705286,0.8500000238418579,0.0,-0.009349144995212555,2,-1.5744686126708984,0.014471039175987244,-0.005034256726503372,0.001169379326055718,0.0018962218179694953,2.7960124015808105,1.4662914276123047,-0.1007617861032486,9.804142951965332,0.0001923753588926047,0.0011975914239883423,-0.010984402149915695,4.727655410766602,209.17430114746094,129.46304321289062,4,1,2.297450931275115,5.0,0.0,45.0,0,0
129,0.45,208.8758087158203,129.51988220214844,-0.003945560194551945,-179.15499877929688,0.04071475565433502,0.019046224653720856,5.987532409506061,0.8500000238418579,0.0,-0.008776133880019188,2,-0.9396839141845703,0.012276023626327515,-0.004358863458037376,0.0011547885729880402,0.0018744098618558905,2.796053409576416,0.5762466192245483,-0.05666258558630943,9.811371803283691,0.0005973007646389306,0.0013937054900452495,-0.007055353838950396,4.727137088775635,208.87586975097656,129.46290588378906,4,1,2.5959131889722116,5.0,0.0,45.0,0,0
130,0.5,208.57485961914062,129.51683044433594,-0.00391183840110898,-179.18975830078125,0.03678056597709656,0.01689956709742546,6.050886452765096,0.8500000238418579,0.0,-0.008250804618000984,2,-1.2672615051269531,0.014376789331436157,-0.0034242630936205387,0.0011725742240195386,0.0018794490558364002,2.7960875034332275,1.0211230516433716,-0.022245069965720177,9.806607246398926,0.0008267590310424566,0.0012022012379020452,-0.013226174749433994,4.7265305519104,208.5749053955078,129.46278381347656,4,1,2.8968777583455285,5.0,0.0,45.0,0,0
131,0.55,208.27066040039062,129.5138397216797,-0.0038923071697354317,-179.21824645996094,0.03358403965830803,0.014185842126607895,6.130888779453271,0.8500000238418579,0.0,-0.007540266960859299,2,-1.6001510620117188,0.004817396402359009,-0.0024477005936205387,0.001177765687764119,0.001873643225129828,2.796107053756714,1.2850807905197144,-0.0598873570561409,9.803375244140625,0.0009837242541834712,0.0006946772919036448,-0.011363421566784382,4.7260332107543945,208.27072143554688,129.462646484375,4,1,3.2010916783263816,5.0,0.0,45.0,0,0
132,0.6000000000000001,207.9628143310547,129.5108642578125,-0.0038871956057846546,-179.24874877929688,0.03139154613018036,0.011224831454455853,6.165963792411231,0.8500000238418579,0.0,-0.0070703946985304356,2,-0.7016849517822266,0.018362626433372498,-0.0014778133481740952,0.0011597842276955131,0.0018711108508395313,2.796112060546875,1.4550492763519287,-0.035930849611759186,9.803338050842285,0.0010298423003405333,0.0009339021053165197,-0.009232761338353157,4.72550106048584,207.96287536621094,129.46250915527344,4,1,3.5089521268916557,5.0,0.0,45.0,0,0
133,0.65,207.65390014648438,129.50790405273438,-0.003874988527968526,-179.27940368652344,0.02820868045091629,0.008231009356677532,6.185721274417197,0.8500000238418579,0.0,-0.00646704388782382,2,-0.3952503204345703,0.010196492075920105,-0.0006053928518667817,0.0011678439633511577,0.0018702722888977522,2.7961244583129883,0.43973371386528015,-0.011880050413310528,9.812830924987793,0.001006812322884798,0.0012454628013074398,-0.017392275854945183,4.724966049194336,207.65396118164062,129.46237182617188,4,1,3.8178804943862024,5.0,0.0,45.0,0,0
134,0.7000000000000001,207.34242248535156,129.50497436523438,-0.0038698005955666304,-179.31005859375,0.02574981190264225,0.00544288195669651,6.272465726409757,0.8500000238418579,0.0,-0.005919152405112982,2,-1.7349720001220703,0.0026725977659225464,0.00011806492693722248,0.001156720312108529,0.001878510618000613,2.7961297035217285,1.0193337202072144,-0.013153557665646076,9.806572914123535,0.0009079839219339192,0.0004326448542997241,-0.012044999748468399,4.724431037902832,207.34246826171875,129.46221923828125,4,1,4.129371933198916,5.0,0.0,45.0,0,0
135,0.75,207.02696228027344,129.5021514892578,-0.0038808630779385567,-179.3319549560547,0.025080453604459763,0.0030176923610270023,6.34690167925123,0.8500000238418579,0.0,-0.00533231720328331,2,-1.4887809753417969,0.0013828277587890625,0.0006486894562840462,0.0011600726890960335,0.0018493793504787612,2.79611873626709,1.5586607456207275,-0.0636434555053711,9.802909851074219,0.0007835188298486173,-9.088935621548444e-05,-0.004077106714248657,4.724048614501953,207.0270233154297,129.4620819091797,4,1,4.444844768189049,5.0,0.0,45.0,0,0
136,0.8,206.70831298828125,129.49929809570312,-0.003897876711562276,-179.35818481445312,0.025278529152274132,0.0010633522178977728,6.391192252162265,0.8500000238418579,0.0,-0.00500833336263895,2,-0.8859157562255859,0.009246766567230225,0.0010744092287495732,0.0011644140430572538,0.0018450489430678714,2.7961015701293945,1.2695270776748657,0.01064658910036087,9.807019233703613,0.0006015606923028827,-5.2187941037118435e-05,-0.009473551996052265,4.723590850830078,206.70835876464844,129.46194458007812,4,1,4.763506835498449,5.0,0.0,45.0,0,0
137,0.8500000000000001,206.38829040527344,129.49649047851562,-0.0039033698849380016,-179.38111877441406,0.024663811549544334,-0.0004272460355423391,6.4116591853933995,0.8500000238418579,0.0,-0.004479103721678257,2,-0.4094123840332031,0.007556751370429993,0.001301384181715548,0.0011532412823662367,0.0018560884741288114,2.796096086502075,0.5590841770172119,-0.01592080667614937,9.814291954040527,0.00044619914842769504,0.00030875627999193966,-0.007710556965321302,4.7231903076171875,206.3883514404297,129.46180725097656,4,1,5.083541734141181,5.0,0.0,45.0,0,0
138,0.9,206.06663513183594,129.4940643310547,-0.0039030646439641714,-179.4078369140625,0.023687094449996948,0.0,6.453531258704389,0.8500000238418579,0.0,-0.010365977883338928,2,-0.8391571044921875,0.2420346438884735,0.00132579798810184,0.0011497243649303934,0.0018556555053381397,2.7960963249206543,0.6777805089950562,-0.12696972489356995,9.812143325805664,-0.00047200045082718134,0.0002715385053306818,-0.007822094485163689,4.722724437713623,206.0666961669922,129.46165466308594,4,1,5.405206157293097,5.0,0.0,45.0,0,0
139,0.9500000000000001,205.7421875,129.49197387695312,-0.003906192723661661,-179.43661499023438,0.02346169762313366,0.0016515764873474836,6.504657346823764,0.8500000238418579,0.0,-0.008121758699417114,2,-1.0229778289794922,0.07677502930164337,0.0012744903797283769,0.0011798497992191212,0.0018434538486437296,2.796093463897705,1.0929312705993652,-0.11599519848823547,9.808143615722656,-0.0006415472598746419,0.00010767597996164113,-0.0062613580375909805,4.722221851348877,205.7422332763672,129.46151733398438,4,1,5.729660523579481,5.0,0.0,45.0,0,0
140,1.0,205.41372680664062,129.4900665283203,-0.003920536022633314,-179.4611358642578,0.024766264483332634,0.003517062868922949,6.602294732800661,0.8500000238418579,0.0,-0.007557251024991274,2,-1.9530010223388672,0.0436566025018692,0.0011543274158611894,0.0011727738565801091,0.0018251531727006118,2.79607892036438,1.5835100412368774,-0.08545833081007004,9.804859161376953,-0.0006531292456202209,-0.0006748123560100794,-0.00768640311434865,4.721794128417969,205.4137725830078,129.46136474609375,4,1,6.058126754813269,5.0,0.0,45.0,0,0
141,1.05,205.0813446044922,129.48826599121094,-0.003943576943129301,-179.4845428466797,0.027184151113033295,0.0052087511867284775,6.682153747233589,0.8500000238418579,0.0,-0.0071778311394155025,2,-1.5973472595214844,0.030564889311790466,0.0009294509654864669,0.0011507252058988494,0.0018352274313583631,2.796056032180786,1.5491855144500732,-0.05978851392865181,9.80582332611084,-0.000561658525839448,-0.0010243243305012584,-0.009848540648818016,4.721385478973389,205.08140563964844,129.46121215820312,4,1,6.390513833742229,5.0,0.0,45.0,0,0
142,1.1,204.74571228027344,129.4864501953125,-0.003965778276324272,-179.51559448242188,0.029731811955571175,0.006545254960656166,6.730293414086942,0.8500000238418579,0.0,-0.00673897797241807,2,-0.9629344940185547,0.0286053866147995,0.0007017134921625257,0.001149546600784126,0.0018344656829278815,2.7960338592529297,1.295001745223999,-0.017026403918862343,9.809561729431152,-0.00042088463669642806,-0.0007677847752347589,-0.009924778714776039,4.720843315124512,204.7457733154297,129.4610595703125,4,1,6.726151069720636,5.0,0.0,45.0,0,0
143,1.1500000000000001,204.40875244140625,129.48471069335938,-0.003970889840275049,-179.54373168945312,0.03068803809583187,0.0073809134773910046,6.748850400234429,0.8500000238418579,0.0,-0.006030104588717222,2,-0.3712272644042969,0.019167810678482056,0.00042552949162200093,0.001155306836008058,0.0018378236098930366,2.7960286140441895,0.5849606990814209,-0.040882136672735214,9.81648063659668,-0.00022557198826689273,-0.00010210347682004794,-0.007641059812158346,4.720352649688721,204.40879821777344,129.46092224121094,4,1,7.06311539850997,5.0,0.0,45.0,0,0
144,1.2000000000000002,204.0695343017578,129.48300170898438,-0.003969821613281965,-179.57281494140625,0.03100905753672123,0.00774379400536418,6.79448373829837,0.8500000238418579,0.0,-0.005563033279031515,2,-0.9127521514892578,0.018296577036380768,0.00022659296519123018,0.0011700969662686727,0.0018131101571761798,2.796029806137085,0.9100987315177917,-0.033072926104068756,9.81208324432373,-7.846695370972157e-05,9.063757170224562e-05,-0.0121004031971097,4.719844818115234,204.06956481933594,129.4607696533203,4,1,7.4023378430712645,5.0,0.0,45.0,0,0
145,1.25,203.72804260253906,129.48138427734375,-0.003963947296142578,-179.5967559814453,0.03087928332388401,0.007676110137254,6.871471397805244,0.8500000238418579,0.0,-0.005030535161495209,2,-1.5398216247558594,0.013692788779735565,3.471373929642141e-05,0.0011572412692148078,0.0018570560272233832,2.7960357666015625,0.92494797706604,-0.0527881421148777,9.811371803283691,6.436838884837925e-05,-0.00026222513406537473,-0.007139992900192738,4.719427108764648,203.72808837890625,129.4606170654297,4,1,7.743833372647306,5.0,0.0,45.0,0,0
146,1.3,203.3831329345703,129.4797821044922,-0.00396310817450285,-179.62184143066406,0.03126177564263344,0.0072674802504479885,6.911083523569836,0.8500000238418579,0.0,-0.004507050383836031,2,-0.7923030853271484,0.013841278851032257,-0.0001148223236668855,0.0011595326500972803,0.0018235322819986515,2.796036720275879,1.360222578048706,-0.02518630027770996,9.807303428649902,0.00017493953055236489,4.146313949604519e-05,-0.00951915979385376,4.71898889541626,203.38319396972656,129.46046447753906,4,1,8.088746761799076,5.0,0.0,45.0,0,0
147,1.35,203.0367889404297,129.478271484375,-0.003950977232307196,-179.64154052734375,0.030428491532802582,0.0065778703428804874,6.943196877901254,0.8500000238418579,0.0,-0.004146710503846407,2,-0.6423282623291016,0.014835447072982788,-0.00023365020751953125,0.0011559945076940945,0.0018215370101266485,2.796048402786255,0.6049811244010925,-0.03987972438335419,9.814051628112793,0.00026914471527561545,0.00036439314135350287,-0.003410524222999811,4.718645095825195,203.03683471679688,129.46029663085938,4,1,8.435094050297803,5.0,0.0,45.0,0,0
148,1.4000000000000001,202.6881561279297,129.47679138183594,-0.003938312642276287,-179.6623992919922,0.029383473098278046,0.005730589386075735,6.999316903287748,0.8500000238418579,0.0,-0.00378391589038074,2,-1.1224555969238281,0.012876614928245544,-0.0003274917835369706,0.0011610431006213266,0.001819763242471201,2.7960612773895264,0.9149264693260193,-0.021342623978853226,9.809843063354492,0.00030017667450010777,0.0002548202173784375,-0.007650241255760193,4.718281269073486,202.68821716308594,129.46014404296875,4,1,8.783730004632961,5.0,0.0,45.0,0,0
149,1.4500000000000002,202.33775329589844,129.475341796875,-0.003920536022633314,-179.67962646484375,0.027792038396000862,0.004775455221533775,7.019841764251061,0.8500000238418579,0.0,-0.0033526800107210875,2,-0.4105377197265625,0.010570734739303589,-0.0003408431657589972,0.001181986715371267,0.0018171254920792796,2.79607892036438,0.7396081686019897,-0.029927048832178116,9.81167221069336,0.00033786005224101245,0.0006474467809312046,-0.00478502968326211,4.71798038482666,202.33779907226562,129.45999145507812,4,1,9.134135835052604,5.0,0.0,45.0,0,0
150,1.5,201.98580932617188,129.47396850585938,-0.0039000129327178,-179.695556640625,0.02575664222240448,0.0038282733876258135,7.052515925949988,0.8500000238418579,0.0,-0.003200568724423647,2,-0.6535434722900391,0.01620754599571228,-0.0003381728893145919,0.0011603261343138998,0.0017996971155403963,2.7960994243621826,0.6242953538894653,-0.023949457332491875,9.810812950134277,0.00031522352946922183,0.0007515852921642363,-0.0047652157954871655,4.717702388763428,201.98585510253906,129.4598388671875,4,1,9.486082484070755,5.0,0.0,45.0,0,0
151,1.55,201.63198852539062,129.47262573242188,-0.0038799475878477097,-179.7115936279297,0.023769056424498558,0.0029549794271588326,7.099642448398799,0.8500000238418579,0.0,-0.0028598688077181578,2,-0.9425735473632812,0.011257156729698181,-0.0002851485915016383,0.0011707536871393778,0.001815884543242349,2.7961196899414062,0.743984580039978,-0.01923041045665741,9.809535026550293,0.0002800965739879757,0.0005643540062010288,-0.007527782581746578,4.7174224853515625,201.6320343017578,129.4596710205078,4,1,9.839905832800017,5.0,0.0,45.0,0,0
152,1.6,201.2754669189453,129.47129821777344,-0.0038688848726451397,-179.72630310058594,0.022607924416661263,0.002170619321987033,7.141555048423964,0.8500000238418579,0.0,-0.0025524285156279802,2,-0.8382797241210938,0.007103756070137024,-0.00023918152146507055,0.0011701643225953795,0.0018016449816944647,2.796130657196045,1.078832983970642,-0.010506261140108109,9.805903434753418,0.00025372259551659226,0.00047112940228544176,-0.00529134925454855,4.717165946960449,201.27552795410156,129.4595184326172,4,1,10.196429910749162,5.0,0.0,45.0,0,0
153,1.6500000000000001,200.9173126220703,129.47012329101562,-0.003856601659208536,-179.7418212890625,0.021303359419107437,0.0019955213647335768,7.17624554028451,0.8500000238418579,0.0,-0.004436799790710211,2,-0.6940746307373047,0.08980561047792435,-0.00019149780564475805,0.0011575889224209892,0.0018051300746978654,2.796143054962158,0.6534155607223511,-0.053269896656274796,9.810380935668945,-5.122713264427148e-05,0.00045565058826468885,-0.006785835139453411,4.71689510345459,200.91737365722656,129.4593505859375,4,1,10.554586134795194,5.0,0.0,45.0,0,0
154,1.7000000000000002,200.55751037597656,129.46908569335938,-0.003845538944005966,-179.75811767578125,0.020053435117006302,0.0022478990722447634,7.209870354059641,0.8500000238418579,0.0,-0.0036150014493614435,2,-0.6725883483886719,0.03656376153230667,-0.0001420974440407008,0.0011739755328372917,0.0018069363245134685,2.796154022216797,0.6682372689247131,-0.048191770911216736,9.8091402053833,-0.00011344236554577947,0.0004231118073221296,-0.0044367616064846516,4.716610908508301,200.5575714111328,129.45919799804688,4,1,10.914389876997806,5.0,0.0,45.0,0,0
155,1.75,200.1952362060547,129.46815490722656,-0.0038425636012107134,-179.77276611328125,0.019602641463279724,0.002602911088615656,7.256232443434393,0.8500000238418579,0.0,-0.0033661755733191967,2,-0.9273052215576172,0.027444344013929367,-3.5095217754133046e-05,0.0011484881580872122,0.0018074450433508192,2.796157121658325,0.9731889367103577,-0.04429195076227188,9.806540489196777,-0.00013175037747714669,0.0002154990070266649,-0.0043882206082344055,4.716354846954346,200.1952667236328,129.4590301513672,4,1,11.276665242645828,5.0,0.0,45.0,0,0
156,1.8,199.83143615722656,129.4672393798828,-0.003838062286376953,-179.78981018066406,0.018994754180312157,0.0029166352469474077,7.287654686724429,0.8500000238418579,0.0,-0.0029689467046409845,2,-0.6284809112548828,0.016820915043354034,3.242494130972773e-06,0.001163576450535885,0.0017917732909991213,2.796161413192749,0.6082116365432739,-0.012718791142106056,9.81026840209961,-0.00010297106200596318,0.00022524564701598138,-0.007923123426735401,4.716057777404785,199.83148193359375,129.45887756347656,4,1,11.640466443465264,5.0,0.0,45.0,0,0
157,1.85,199.46597290039062,129.46640014648438,-0.0038340187165886164,-179.80447387695312,0.018482491374015808,0.0031093922443687916,7.321288462724975,0.8500000238418579,0.0,-0.002650525886565447,2,-0.6727027893066406,0.01332087442278862,-7.62956915423274e-07,0.0011788976951627643,0.0017888917203181041,2.796165943145752,0.6780754923820496,-0.027835575863718987,9.809859275817871,-5.323395453160629e-05,0.00019018443708773702,-0.004571837838739157,4.715801239013672,199.4660186767578,129.45870971679688,4,1,12.005930663888861,5.0,0.0,45.0,0,0
158,1.9000000000000001,199.09849548339844,129.46559143066406,-0.0038341712206602097,-179.8168182373047,0.01835954748094082,0.0031831604428589344,7.367372009615947,0.8500000238418579,0.0,-0.0024246922694146633,2,-0.9216976165771484,0.013577621430158615,5.035402864450589e-05,0.0011493334576189672,0.0017932184143191383,2.796165704727173,0.7980747818946838,-0.023086361587047577,9.807868957519531,-1.466116100345971e-05,-2.6469648219062947e-05,-0.0030588828958570957,4.715586185455322,199.09854125976562,129.4585418701172,4,1,12.373408970759524,5.0,0.0,45.0,0,0
159,1.9500000000000002,198.7291717529297,129.46484375,-0.003834628965705633,-179.82958984375,0.01836637780070305,0.003149451455101371,7.400847219204159,0.8500000238418579,0.0,-0.002189036225900054,2,-0.6695270538330078,0.012472756206989288,7.91549391578883e-05,0.0011553292888390738,0.0017977880375517452,2.7961654663085938,0.7330523133277893,-0.03271005302667618,9.809685707092285,1.8603263015393168e-05,-2.8656186259468086e-05,-0.005446342285722494,4.715363025665283,198.7292022705078,129.4583740234375,4,1,12.742733458051836,5.0,0.0,45.0,0,0
160,2.0,198.35769653320312,129.46409606933594,-0.0038392830174416304,-179.84274291992188,0.018789850175380707,0.0030207689851522446,7.440464835989097,0.8500000238418579,0.0,-0.0019740986172109842,2,-0.7923698425292969,0.009842272847890854,6.637573824264109e-05,0.0011663829371931903,0.0017945639276867032,2.7961602210998535,0.863226592540741,0.0021225721575319767,9.807843208312988,5.187514761928469e-05,-9.596320160198957e-05,-0.006387025583535433,4.7151336669921875,198.3577423095703,129.4582061767578,4,1,13.114209430218642,5.0,0.0,45.0,0,0
161,2.0500000000000003,197.98460388183594,129.46340942382812,-0.0038423347286880016,-179.85205078125,0.019063057377934456,0.0027713365852832794,7.475261160597623,0.8500000238418579,0.0,-0.0016379806911572814,2,-0.6959342956542969,0.004282612353563309,7.190703763626516e-05,0.0011449951717997131,0.00176892895603448,2.796157121658325,0.6431714296340942,-0.03712693974375725,9.810565948486328,0.00010187726002186537,-8.577080734539777e-05,-0.0010160291567444801,4.71497106552124,197.98463439941406,129.45803833007812,4,1,13.48730271344182,5.0,0.0,45.0,0,0
162,2.1,197.60948181152344,129.46273803710938,-0.0038470649160444736,-179.8604736328125,0.019520679488778114,0.002448950195685029,7.519816195238812,0.8500000238418579,0.0,-0.001516502583399415,2,-0.89111328125,0.00735260546207428,6.980896432651207e-05,0.0011769611916807728,0.001767577477886537,2.7961525917053223,0.8183394074440002,-0.0024038581177592278,9.809097290039062,0.00011582476872717962,-0.00020515227515716106,-0.0017375524621456861,4.714824199676514,197.60951232910156,129.4578857421875,4,1,13.862425384571763,5.0,0.0,45.0,0,0
163,2.15,197.23252868652344,129.4620819091797,-0.003850650740787387,-179.86895751953125,0.019930491223931313,0.00210715108551085,7.554121083520952,0.8500000238418579,0.0,-0.0014079684624448419,2,-0.6861114501953125,0.008590370416641235,3.070831371587701e-05,0.0011745276954089226,0.0017655677832229403,2.7961490154266357,0.7383760809898376,-0.017041534185409546,9.810213088989258,0.00011404284305172041,-0.00014922260015737265,-0.003846196224913001,4.7146759033203125,197.23255920410156,129.45770263671875,4,1,14.239379080602358,5.0,0.0,45.0,0,0
164,2.2,196.85372924804688,129.46145629882812,-0.0038545418065041304,-179.87796020507812,0.02033347263932228,0.001771966926753521,7.591032055176753,0.8500000238418579,0.0,-0.001263840589672327,2,-0.7382297515869141,0.00660434365272522,4.463195728021674e-05,0.0011606024032473443,0.0017826157237725553,2.796144962310791,0.7434796690940857,-0.0018795093055814505,9.809502601623535,0.0001096768319257535,-0.0001286893675569445,-0.005295504350215197,4.714519023895264,196.85377502441406,129.45753479003906,4,1,14.618179035695373,5.0,0.0,45.0,0,0
165,2.25,196.47314453125,129.4608612060547,-0.0038572882767766714,-179.8832244873047,0.0205998495221138,0.0014131576754152775,7.625813938588915,0.8500000238418579,0.0,-0.0009806097950786352,2,-0.6956386566162109,0.00020518898963928223,5.645752025884576e-05,0.0011659070919346121,0.0017583072163810788,2.796142101287842,0.7134848237037659,-0.02168881520628929,9.810290336608887,0.0001290785294258967,-7.071319851092994e-05,6.103217674535699e-05,4.7144269943237305,196.4731903076172,129.45736694335938,4,1,14.99876421774371,5.0,0.0,45.0,0,0
166,2.3000000000000003,196.0906524658203,129.4602813720703,-0.003859348129481077,-179.8881378173828,0.02084573544561863,0.0010991108138114214,7.664815664498434,0.8500000238418579,0.0,-0.0010773526737466455,2,-0.7800483703613281,0.009516570717096329,1.1825563888123725e-05,0.0011782432369769613,0.0017512505933219118,2.796140432357788,0.7735580801963806,-0.006691351532936096,9.810110092163086,9.794464858714491e-05,-7.354971603490412e-05,-0.000466625380795449,4.714341163635254,196.09071350097656,129.4571990966797,4,1,15.381256722669125,5.0,0.0,45.0,0,0
167,2.35,195.70635986328125,129.4597625732422,-0.0038603399880230427,-179.89476013183594,0.02096867933869362,0.0010339870350435376,7.701728752579588,0.8500000238418579,0.0,-0.0017019077204167843,2,-0.7383060455322266,0.03573242574930191,2.0980769477318972e-06,0.001163064646062518,0.0017455944957516505,2.7961392402648926,0.7285521030426025,-0.021508576348423958,9.809968948364258,-2.12203503906494e-05,-4.7360113967442885e-05,-0.0030637052841484547,4.714225769042969,195.70640563964844,129.45703125,4,1,15.765549675399813,5.0,0.0,45.0,0,0
168,2.4000000000000004,195.32028198242188,129.4592742919922,-0.0038598058745265007,-179.90252685546875,0.02094818837940693,0.0010972102172672749,7.734745389273822,0.8500000238418579,0.0,-0.001237924094311893,2,-0.6603431701660156,0.009380746632814407,8.392335075768642e-06,0.0011662592902825478,0.001742612026664249,2.796139717102051,0.7135775089263916,-0.00639565521851182,9.810442924499512,-2.887326445488725e-05,3.037478199985344e-05,-0.00485961651429534,4.714090347290039,195.32032775878906,129.45684814453125,4,1,16.151627865029123,5.0,0.0,45.0,0,0
169,2.45,194.9324493408203,129.45884704589844,-0.0038583565037697554,-179.90716552734375,0.02082524634897709,0.0011227434733882546,7.769331691753316,0.8500000238418579,0.0,-0.0009806097950786352,2,-0.6917285919189453,0.0021111778914928436,-3.604888479458168e-05,0.0011733807957961296,0.0017573611309935843,2.7961413860321045,0.7035159468650818,-0.03132622316479683,9.810135841369629,1.1272254596406128e-07,7.29108796804212e-05,8.690309914527461e-05,4.7140092849731445,194.93247985839844,129.45668029785156,4,1,16.539460741963083,5.0,0.0,45.0,0,0
170,2.5,194.5428924560547,129.4584197998047,-0.0038562200497835875,-179.91204833984375,0.02061351016163826,0.0011738225584849715,7.8048438557543,0.810851514339447,0.0,-0.0011981634888797998,2,-0.7102584838867188,0.015334384515881538,3.356934030307457e-05,0.0011664665791011031,0.0017475188002313053,2.7961435317993164,0.7035362124443054,0.003724641166627407,9.809982299804688,-2.6182387955486774e-05,9.161760681308806e-05,-0.0007455826853401959,4.713923931121826,194.54295349121094,129.45651245117188,4,1,16.929017861019485,5.0,0.0,45.0,0,0
171,2.5500000000000003,194.1516876220703,129.45802307128906,-0.0038528633303940296,-179.91775512695312,0.02027199976146221,0.0012120301835238934,7.838599940045119,0.7596494555473328,0.0,-0.0009114888962358236,2,-0.6751251220703125,0.0034905318170785904,-1.6784670151537284e-05,0.001159027709762477,0.0017742718249112335,2.796146869659424,0.6584416627883911,-0.021147536113858223,9.810236930847168,-8.977611287264153e-06,0.00011982487922068685,-0.0024158023297786713,4.713824272155762,194.15171813964844,129.45632934570312,4,1,17.320222896168904,5.0,0.0,45.0,0,0
172,2.6,193.7589874267578,129.45761108398438,-0.003847904037684202,-179.92405700683594,0.019725585356354713,0.0012037146370857954,7.865620204850935,0.7111033201217651,0.0,-0.0008381697698496282,2,-0.5404090881347656,0.004083840176463127,-7.057192306092475e-06,0.0011627247164965454,0.001746815820736928,2.796151638031006,0.6183903217315674,0.008978712372481823,9.810413360595703,4.081834504177095e-06,0.00022661279945168644,-0.004003305919468403,4.713714599609375,193.75901794433594,129.45616149902344,4,1,17.712923307592185,5.0,0.0,45.0,0,0
173,2.6500000000000004,193.36483764648438,129.45726013183594,-0.0038407323881983757,-179.9275665283203,0.018987925723195076,0.0011853493051603436,7.89292112589165,0.6724996566772461,0.0,-0.0008796547190286219,2,-0.5460262298583984,0.009152060374617577,1.430511474609375e-05,0.0011538230088926876,0.0017165253578554167,2.796159029006958,0.5682255625724792,-0.020917093381285667,9.810750007629395,6.515013410535175e-06,0.0002960260317195207,0.0002827381540555507,4.713653087615967,193.36488342285156,129.4559783935547,4,1,18.107073244110016,5.0,0.0,45.0,0,0
174,2.7,192.96939086914062,129.45692443847656,-0.003831882495433092,-179.93154907226562,0.01807267963886261,0.0011443032417446375,7.919076917222879,0.6331559419631958,0.0,-0.0007147158030420542,2,-0.5231189727783203,0.0037819519639015198,-8.773804438533261e-06,0.001173012004690559,0.0017323737990169656,2.796168088912964,0.5380821228027344,-0.01083509810268879,9.810611724853516,1.863207944552414e-05,0.0003484812332317233,-0.000817206921055913,4.713583946228027,192.9694366455078,129.455810546875,4,1,18.502520163938186,5.0,0.0,45.0,0,0
175,2.75,192.57269287109375,129.4565887451172,-0.0038216589018702507,-179.9357452392578,0.017007170245051384,0.0010517777409404516,7.944544287443205,0.5955311059951782,0.0,-0.0005661552422679961,2,-0.5093479156494141,0.00046463683247566223,3.8147391023812816e-07,0.0011495854955281323,0.0017412801707286276,2.796178102493286,0.4979002773761749,-0.010735051706433296,9.810243606567383,3.743970955838449e-05,0.00037031699321232736,-0.0017114332877099514,4.713510513305664,192.57273864746094,129.45562744140625,4,1,18.899218304020074,5.0,0.0,45.0,0,0
176,2.8000000000000003,192.17494201660156,129.4562530517578,-0.003809985937550664,-179.94017028808594,0.01578456722199917,0.0008875672938302159,7.96355593317476,0.5588755011558533,0.0,-0.0003670363512355834,2,-0.3802299499511719,-0.003941478207707405,-1.2588502613652963e-05,0.00116202506429629,0.001728042867134936,2.796189785003662,0.44271284341812134,0.009388593025505543,9.810425758361816,6.379132537404075e-05,0.000449571933131665,-0.0028137133922427893,4.713433265686035,192.1749725341797,129.4554443359375,4,1,19.296969300171305,5.0,0.0,45.0,0,0
177,2.85,191.7761993408203,129.4559326171875,-0.0037974738515913486,-179.9420623779297,0.014459509402513504,0.0007054584566503763,7.9827451455057865,0.5317955017089844,0.0,-0.00043982735951431096,2,-0.3837871551513672,0.0035745464265346527,-1.1634824659267906e-05,0.0011672041691883743,0.001724102317441046,2.7962024211883545,0.3824603855609894,-0.015505009330809116,9.810295104980469,6.148724787635729e-05,0.00048050316399894655,0.0007511647418141365,4.713400363922119,191.77622985839844,129.4552764892578,4,1,19.695712104705137,5.0,0.0,45.0,0,0
178,2.9000000000000004,191.37652587890625,129.4556121826172,-0.003784122411161661,-179.94485473632812,0.013086642138659954,0.0005558363045565784,8.000301621441869,0.5041428804397583,0.0,-0.00043982735951431096,2,-0.3511333465576172,0.004954980686306953,-2.8610247682081535e-06,0.001162904463832508,0.0017298363526330118,2.796215772628784,0.38724997639656067,0.009534348733723164,9.810303688049316,4.591588367475197e-05,0.0004947896231897175,-0.0011003820691257715,4.713351249694824,191.37657165527344,129.45509338378906,4,1,20.095385695071933,5.0,0.0,45.0,0,0
179,2.95,190.97596740722656,129.45530700683594,-0.003771457588300109,-179.9478759765625,0.01171377394348383,0.0005123739829286933,8.018156725096938,0.4789293110370636,0.0,-0.0006948008667677641,2,-0.3571128845214844,0.015624165534973145,-1.2207030522404239e-05,0.0011613627467243319,0.0017233102547504053,2.7962286472320557,0.3519963026046753,-0.010406110435724258,9.809694290161133,-2.8958577331650304e-06,0.0004636302764993161,-0.0012329753953963518,4.713298797607422,190.9759979248047,129.4549102783203,4,1,20.495944283004615,5.0,0.0,45.0,0,0
180,3.0,190.57470703125,129.4550323486328,-0.0037581061478704214,-179.95114135742188,0.010354566387832165,0.0004943138919770718,8.031566341008665,0.4531936049461365,0.0,-0.0003670363512355834,2,-0.2681922912597656,-0.0001277495175600052,2.9945374990347773e-05,0.0011786578790701323,0.0017264420722226967,2.7962417602539062,0.28176000714302063,-0.015323355793952942,9.810028076171875,9.512163160252385e-06,0.0004648883477784693,-0.0018150543328374624,4.7132415771484375,190.5747528076172,129.45474243164062,4,1,20.897204752981388,5.0,0.0,45.0,0,0
181,3.0500000000000003,190.1728057861328,129.4547882080078,-0.0037458990700542927,-179.95278930664062,0.009043170139193535,0.0004781130119226873,8.04347374857758,0.43408632278442383,0.0,-0.00043982735951431096,2,-0.23815155029296875,0.005412744358181953,4.196162990410812e-06,0.0011720948951511121,0.001723743175844546,2.7962539196014404,0.2515481412410736,-0.0002878212253563106,9.809569358825684,3.108515556959901e-06,0.0004539580550044775,0.0006212943699210882,4.713212966918945,190.17283630371094,129.45455932617188,4,1,21.299106072251917,5.0,0.0,45.0,0,0
182,3.1,189.7703094482422,129.45448303222656,-0.003733997233211994,-179.9550323486328,0.007793245371431112,0.00033966463524848223,8.053994331566903,0.4170039892196655,0.0,0.00017573311924934387,2,-0.21039962768554688,-0.018334314227104187,-6.484983714472037e-06,0.0011555471243135387,0.0017231465856516286,2.7962658405303955,0.24634607136249542,0.014749579131603241,9.80988883972168,7.08912339177914e-05,0.00043283781269565225,-0.0012657769257202744,4.713173866271973,189.7703399658203,129.45437622070312,4,1,21.701602525835824,5.0,0.0,45.0,0,0
183,3.1500000000000004,189.36729431152344,129.45420837402344,-0.0037230108864605427,-179.95668029785156,0.006632113363593817,0.0002745614619925618,8.064234208756009,0.4019150733947754,0.0,-0.0006155604496598244,2,-0.20481109619140625,0.020770970731973648,-5.722040441469289e-07,0.0011758909834194006,0.0016978978116310697,2.796276807785034,0.2011202871799469,-0.02019822783768177,9.809586524963379,-3.947510776924901e-06,0.00038799949106760323,-0.0004682770522776991,4.7131452560424805,189.36732482910156,129.45419311523438,4,1,22.1046177561455,5.0,0.0,45.0,0,0
184,3.2,188.9638671875,129.45396423339844,-0.0037128638941794634,-179.95907592773438,0.0055734338238835335,0.00032144898432306945,8.072413640734775,0.3871758282184601,0.0,-0.00043982735951431096,2,-0.16359329223632812,0.008267750963568687,-1.7166121324407868e-06,0.0011478410516562788,0.0016984767957462835,2.7962870597839355,0.1759578138589859,0.0048199607990682125,9.809826850891113,-2.3531270926469006e-05,0.00035071224556304514,-0.0013526667607948184,4.713103294372559,188.9639129638672,129.45401000976562,4,1,22.508044954041807,5.0,0.0,45.0,0,0
185,3.25,188.56007385253906,129.45375061035156,-0.003703708527609706,-179.9605255126953,0.004617207683622837,0.0004071131406817585,8.078738220983547,0.3754919469356537,0.0,-0.00043982735951431096,2,-0.126495361328125,0.007320288568735123,6.866453077236656e-06,0.0011708403915878499,0.001685239400492559,2.7962963581085205,0.13077670335769653,-0.02015925757586956,9.809365272521973,-3.339784234412946e-05,0.00032115611247718334,0.0003329585015308112,4.713078022003174,188.5601348876953,129.45384216308594,4,1,22.91183834551037,5.0,0.0,45.0,0,0
186,3.3000000000000003,188.1559600830078,129.4535369873047,-0.0036956213880330324,-179.96316528320312,0.003763434011489153,0.0005111781065352261,8.084320871023891,0.3664689064025879,0.0,-0.00043982735951431096,2,-0.11165618896484375,0.006803469732403755,-3.4332288123550825e-06,0.0011780899683198854,0.0016934779973122008,2.796304225921631,0.14564742147922516,0.004819274879992008,9.809599876403809,-3.763360291486606e-05,0.00028520371415652335,-0.0016063806833699346,4.713031768798828,188.15602111816406,129.4536590576172,4,1,23.315952171504435,5.0,0.0,45.0,0,0
187,3.35,187.75160217285156,129.4533233642578,-0.003688602475449443,-179.96441650390625,0.0030257736798375845,0.00047113269101828337,8.089472107895492,0.3584617078304291,0.0,0.00017573311924934387,2,-0.10301589965820312,-0.017695352435112,4.76837158203125e-06,0.001157145827546539,0.0016873525812860894,2.796311378479004,0.07551493495702744,-0.005127243231981993,9.809605598449707,4.081421866430901e-05,0.0002415794151602313,0.00014153467782307416,4.713010311126709,187.7516632080078,129.45347595214844,4,1,23.72031013808941,5.0,0.0,45.0,0,0
188,3.4000000000000004,187.34698486328125,129.45310974121094,-0.00368265132419765,-179.96636962890625,0.002397396368905902,0.0004763266770169139,8.093725932004315,0.3510620892047882,0.0,-0.0006155604496598244,2,-0.08508682250976562,0.02111016772687435,1.1444126357673667e-06,0.001165380473235769,0.0016792145822205052,2.7963173389434814,0.10541039705276489,-0.00014316038868855685,9.80960464477539,-2.46008530666586e-05,0.00020072014012839645,-0.0012994640273973346,4.712975978851318,187.34703063964844,129.4532928466797,4,1,24.12492750405227,5.0,0.0,45.0,0,0
189,3.45,186.94219970703125,129.45294189453125,-0.0036776161286979914,-179.96804809570312,0.0018783019622787833,0.000624285894446075,8.09693089406709,0.3449760675430298,0.0,-0.0006948008667677641,2,-0.06410598754882812,0.01835913397371769,0.0,0.0011531815540452588,0.0016841400586194212,2.7963223457336426,0.07031039893627167,-0.020145902410149574,9.809528350830078,-6.52724047540687e-05,0.0001680494169704616,2.475095789122861e-05,4.712946891784668,186.94224548339844,129.45310974121094,4,1,24.5297126951016,5.0,0.0,45.0,0,0
190,3.5,186.5372772216797,129.4527587890625,-0.0036735725589096546,-179.97015380859375,0.0014548301696777344,0.0006162336794659495,8.09967981976065,0.3404099643230438,0.0,0.0002485241857357323,2,-0.05496978759765625,-0.022906888276338577,-9.53677954385057e-07,0.0011713187999163753,0.0016743781151056273,2.796326160430908,0.050254274159669876,0.009868449531495571,9.809686660766602,3.897257556673139e-05,0.00013593555195257068,-0.0012115854769945145,4.712909698486328,186.5373077392578,129.4529266357422,4,1,24.9346352218532,5.0,0.0,45.0,0,0
191,3.5500000000000003,186.13221740722656,129.4525604248047,-0.0036703681107610464,-179.97067260742188,0.0011201510205864906,0.0004683768784161657,8.102090791758597,0.3364708423614502,0.0,0.0,2,-0.0482177734375,-0.0036117900162935257,-8.773799891059753e-06,0.0011403549063281396,0.0016778233773660264,2.7963294982910156,0.055194322019815445,0.00489165959879756,9.809686660766602,5.7418834330746904e-05,0.00010524569370318204,0.0004060982901137322,4.7129011154174805,186.1322479248047,129.45274353027344,4,1,25.339695084877395,5.0,0.0,45.0,0,0
192,3.6,185.72705078125,129.4523468017578,-0.003667926648631692,-179.9717254638672,0.0008674339624121785,0.00029621474095620215,8.104097356914473,0.3330138325691223,0.0,0.0,2,-0.040130615234375,-0.0014476990327239037,3.814693627646193e-06,0.0011751090342207288,0.0016546766962651862,2.7963321208953857,0.05014601722359657,-0.005075376946479082,9.809608459472656,6.067379217711277e-05,7.839384488761425e-05,-0.0009082245524041355,4.7128825187683105,185.7270965576172,129.45257568359375,4,1,25.74486176717005,5.0,0.0,45.0,0,0
193,3.6500000000000004,185.32179260253906,129.4521484375,-0.003666095668449998,-179.9717254638672,0.0006761886761523783,0.00013045668310951442,8.105609894196624,0.3301424980163574,0.0,0.0,2,-0.03025054931640625,-0.0004129856824874878,-5.722040441469289e-07,0.0011573330593717616,0.0016574201526245182,2.7963337898254395,0.0201182309538126,0.004967796616256237,9.809844017028809,5.518833495443687e-05,5.811909431940876e-05,0.0006420778227038682,4.7128825187683105,185.3218536376953,129.452392578125,4,1,26.150119994428284,5.0,0.0,45.0,0,0
194,3.7,184.9164581298828,129.4519805908203,-0.0036648749373853207,-179.9730987548828,0.0005464151035994291,0.00013510067947208881,8.106890180552856,0.3279871344566345,0.0,-0.0006155604496598244,2,-0.025615692138671875,0.024284109473228455,-5.912779670325108e-06,0.0011691114397944422,0.0016680408479328142,2.796334981918335,0.04008885473012924,-0.01004190742969513,9.809687614440918,-3.2083986297948286e-05,4.092057861271314e-05,-0.0012040773872286081,4.7128586769104,184.91648864746094,129.45220947265625,4,1,26.555454501836707,5.0,0.0,45.0,0,0
195,3.75,184.51109313964844,129.4518585205078,-0.0036639594472944736,-179.97415161132812,0.00045079246046952903,0.0002661685284692794,8.107949563068962,0.32615309953689575,0.0,-0.00043982735951431096,2,-0.021190643310546875,0.009807371534407139,-5.722040441469289e-07,0.0011702827162608216,0.0016664031962991418,2.7963359355926514,0.010065902024507523,-0.025050075724720955,9.809922218322754,-5.2388073527254164e-05,2.7224828954786062e-05,0.00017977035895455629,4.7128400802612305,184.51112365722656,129.4520263671875,4,1,26.960819510451014,5.0,0.0,45.0,0,0
196,3.8000000000000003,184.1056671142578,129.4517059326172,-0.003663348965346813,-179.9756317138672,0.0003893207758665085,0.00028392786043696105,8.108845327892716,0.324638694524765,0.0,0.00017573311924934387,2,-0.017910003662109375,-0.01628759875893593,4.76837158203125e-06,0.0011586837102347597,0.0016551698859439995,2.7963366508483887,0.020075151696801186,0.01994287595152855,9.809844017028809,1.8431357602821663e-05,1.6630399841233157e-05,-0.0010065638925880194,4.7128143310546875,184.10569763183594,129.45184326171875,4,1,27.366245564555957,5.0,0.0,45.0,0,0
197,3.85,183.7001953125,129.45155334472656,-0.0036630439572036266,-179.97584533691406,0.00035516981733962893,0.00020831536676269025,8.109508183278981,0.3233550190925598,0.0,0.0,2,-0.013256072998046875,-0.0027004769071936607,-7.629396350239404e-06,0.0011583586500516151,0.0016540266220712392,2.7963368892669678,0.020058702677488327,-0.005044099409133196,9.809844017028809,2.9983253625687212e-05,1.0193079106102232e-05,0.0005687092780135572,4.712810516357422,183.7002410888672,129.45166015625,4,1,27.771717395024844,5.0,0.0,45.0,0,0
198,3.9000000000000004,183.2947235107422,129.4513397216797,-0.0036628912203013897,-179.9760284423828,0.0003278490621596575,-3.0517576306010596e-05,8.110080029722738,0.32241129875183105,0.0,0.0006155604496598244,2,-0.011425018310546875,-0.02534664236009121,1.3351473171496764e-06,0.00116804626764182,0.001658004678526288,2.7963368892669678,-0.004935498349368572,0.020007317885756493,9.809922218322754,0.0001093369210138917,5.540209258469986e-06,-0.0005217411671765149,4.712807655334473,183.2947540283203,129.45147705078125,4,1,28.177189253056362,5.0,0.0,45.0,0,0
199,3.95,182.88922119140625,129.45115661621094,-0.0036627387162297964,-179.9752655029297,0.0003210188588127494,-0.00021362301777116954,8.110518361917528,0.3215927183628082,0.0,-0.00017573311924934387,2,-0.0087738037109375,0.01419521402567625,1.9073468138230965e-07,0.0011672477995091186,0.0016478431125321754,2.796337127685547,0.020050641149282455,-0.009972047992050648,9.81015682220459,3.7628880818374455e-05,3.3608694138820283e-06,0.000792072038166225,4.712820529937744,182.88926696777344,129.4512939453125,4,1,28.582691613733136,5.0,0.0,45.0,0,0
200,4.0,182.483642578125,129.45095825195312,-0.0036627387162297964,-179.97560119628906,0.00031418868456967175,-0.000274658203125,8.110908370206161,0.32096704840660095,0.0,0.0,2,-0.007801055908203125,0.001956759952008724,3.4332242648815736e-06,0.0011554786412872023,0.001629235347465834,2.796337127685547,0.020058050751686096,0.010038507170975208,9.809844017028809,1.724310095596593e-05,1.9505189357005293e-06,-0.0007087346166372299,4.712815284729004,182.4836883544922,129.4511260986328,4,1,28.988270275523323,5.0,0.0,45.0,0,0
201,4.05,182.0780792236328,129.45077514648438,-0.003662586212158203,-179.97511291503906,0.0003073585103265941,-0.00030517575214616954,8.111180143541738,0.320407509803772,0.0,0.0,2,-0.005435943603515625,0.0010701082646846771,-5.722044988942798e-06,0.0011515589314929175,0.0016327418757940706,2.796337127685547,0.005050452891737223,-0.004949919879436493,9.8100004196167,2.269529431941919e-06,2.556296067268704e-06,0.0007686669705435634,4.712823390960693,182.07814025878906,129.45094299316406,4,1,29.393833671350126,5.0,0.0,45.0,0,0
202,4.1000000000000005,181.67251586914062,129.45057678222656,-0.003662586212158203,-179.97544860839844,0.000300528306979686,-0.00030517578125,8.111432853916247,0.3200215697288513,0.0,0.0,2,-0.005054473876953125,0.0006043585017323494,3.242494130972773e-06,0.0011653270923527369,0.0016241147532446096,2.796337127685547,-0.004948544315993786,5.4393414757214487e-05,9.8100004196167,-8.077362508629449e-06,2.905121164076263e-06,-0.0007313364185392857,4.712817668914795,181.6725616455078,129.4507598876953,4,1,29.799397074353077,5.0,0.0,45.0,0,0
203,4.15,181.26695251464844,129.45037841796875,-0.003662433475255966,-179.9750213623047,0.00029369810363277793,-0.00024414061044808477,8.111602601731686,0.31965842843055725,0.0,0.0,2,-0.00339508056640625,0.00028345733880996704,7.629387255292386e-07,0.0011734049132089124,0.0016256835353739088,2.796337604522705,5.464594141812995e-05,0.010041801258921623,9.810078620910645,-1.4834083231107797e-05,4.236233053234173e-06,0.0007533761090599,4.712824821472168,181.26698303222656,129.45057678222656,4,1,30.20496047735603,5.0,0.0,45.0,0,0
204,4.2,180.86138916015625,129.45018005371094,-0.003662280971184373,-179.9753875732422,0.00028003775514662266,-0.00021362300321925431,8.111775213252361,0.3194178640842438,0.0,0.0,2,-0.003452301025390625,0.0001612585037946701,-3.4332288123550825e-06,0.0011357773520295621,0.0016209973431798187,2.796337604522705,0.005043651908636093,-0.009965566918253899,9.809922218322754,-1.871850145107601e-05,4.92346407554578e-06,-0.000737836176995188,4.712818145751953,180.86143493652344,129.4503936767578,4,1,30.61052388035898,5.0,0.0,45.0,0,0
205,4.25,180.455810546875,129.44998168945312,-0.0036621284671127796,-179.9749755859375,0.00025954717420972884,-0.000152587890625,8.111874394377804,0.3191690146923065,0.0,0.0,2,-0.001983642578125,4.56860288977623e-05,3.242494130972773e-06,0.0011601682980013587,0.001624657675722857,2.796337842941284,-0.004953376948833466,0.005028309766203165,9.81015682220459,-1.990509917959571e-05,6.130806013970869e-06,0.0007491654832847416,4.712825775146484,180.4558563232422,129.45021057128906,4,1,31.016102542149167,5.0,0.0,45.0,0,0
206,4.3,180.0502471923828,129.44979858398438,-0.0036619757302105427,-179.9753875732422,0.0002458867966197431,-9.155274165095761e-05,8.111989787983218,0.31902962923049927,0.0,0.0,2,-0.002307891845703125,4.488043487071991e-05,-5.722040441469289e-07,0.0011707553040087317,0.0016189013828991823,2.796337842941284,4.209928010823205e-05,1.5675117538194172e-05,9.809844017028809,-1.9525468815118074e-05,6.464596935984446e-06,-0.00074244529241696,4.712818622589111,180.05027770996094,129.4500274658203,4,1,31.42166593797597,5.0,0.0,45.0,0,0
207,4.3500000000000005,179.64468383789062,129.44960021972656,-0.0036618232261389494,-179.9749755859375,0.00022539623023476452,-3.0517576306010596e-05,8.112046054804964,0.3188626170158386,0.0,0.0,2,-0.001125335693359375,-1.9511207938194275e-06,-1.3351427696761675e-06,0.0011651811619198837,0.0016170953733538956,2.7963380813598633,0.005038592033088207,3.0412500109378016e-06,9.810078620910645,-1.709761272650212e-05,6.956305696803611e-06,0.0007460357737727463,4.712825775146484,179.6447296142578,129.44984436035156,4,1,31.82722934097892,5.0,0.0,45.0,0,0
208,4.4,179.23912048339844,129.44940185546875,-0.0036616704892367125,-179.9753875732422,0.00020490566384978592,1.2848130381826195e-06,8.112128070036286,0.3187843859195709,0.0,0.0,2,-0.00164031982421875,3.460794687271118e-05,7.629387255292386e-07,0.0011502495853664123,0.0016243953440770894,2.7963380813598633,-0.004967064596712589,-0.004998072050511837,9.809922218322754,-1.455095025448827e-05,6.575444331247127e-06,-0.0007436317973770201,4.712818622589111,179.23915100097656,129.44967651367188,4,1,32.232792743981875,5.0,0.0,45.0,0,0
209,4.45,178.83355712890625,129.44920349121094,-0.003661517985165119,-179.9749755859375,0.00018441509746480733,3.6886758607579395e-05,8.112156680165896,0.3186649978160858,0.0,0.0,2,-0.00057220458984375,4.470348358154297e-06,-3.814698175119702e-06,0.0011567026844325652,0.001612949040543681,2.7963383197784424,0.010033759288489819,0.00498931622132659,9.81015682220459,-1.0864011528610718e-05,6.5471554080431815e-06,0.0007452394929714501,4.712825775146484,178.83360290527344,129.44949340820312,4,1,32.638356146984826,5.0,0.0,45.0,0,0
210,4.5,178.427978515625,129.44900512695312,-0.003661212744191289,-179.9753875732422,0.0001707547198748216,6.264584953896701e-05,8.112216760623072,0.318626344203949,0.0,0.0,2,-0.001201629638671875,4.692003130912781e-05,-1.5258774510584772e-06,0.0011549231857059014,0.001604101248524673,2.7963387966156006,-0.009970763698220253,-6.4309133449569345e-06,9.8100004196167,-7.746723895252217e-06,5.600604708888568e-06,-0.0007446158560924232,4.712818622589111,178.4280242919922,129.44931030273438,4,1,33.04393480877501,5.0,0.0,45.0,0,0
211,4.55,178.0224151611328,129.44882202148438,-0.003661212744191289,-179.9749755859375,0.00015709434228483588,7.864434155635536e-05,8.112228204359322,0.31853827834129333,0.0,0.0,2,-0.0002288818359375,1.6330741345882416e-05,4.57763690064894e-06,0.0011516695763955425,0.001593820158814589,2.7963387966156006,2.471284824423492e-05,-0.005013465415686369,9.809844017028809,-4.2604629015841056e-06,5.054274424765026e-06,0.0007445908850058913,4.712825775146484,178.02244567871094,129.44912719726562,4,1,33.44949820460182,5.0,0.0,45.0,0,0
212,4.6000000000000005,177.61685180664062,129.44862365722656,-0.0036610602401196957,-179.9753875732422,0.00013660377589985728,8.592668018536642e-05,8.112273025868781,0.31852415204048157,0.0,0.0,2,-0.000896453857421875,5.434267222881317e-05,-2.8610247682081535e-06,0.0011510722584363695,0.0016088366266039694,2.7963387966156006,0.00502553628757596,0.00498313969001174,9.8100004196167,-1.2932086974615231e-06,3.7719978536188137e-06,-0.0007448237156495452,4.712818622589111,177.6168670654297,129.44894409179688,4,1,33.85506160760477,5.0,0.0,45.0,0,0
213,4.65,177.21128845214844,129.4484405517578,-0.0036609077360481024,-179.9749755859375,0.00012977358710486442,8.579080167692155e-05,8.112272071775367,0.3184579610824585,0.0,0.0,2,1.9073486328125e-05,1.9329600036144257e-05,1.1444080882938579e-06,0.0011501220263127638,0.001598478463698047,2.7963390350341797,-0.004979963880032301,-0.00501250522211194,9.810078620910645,1.0213469749942305e-06,3.162390385114122e-06,0.0007444449001923203,4.712825775146484,177.21131896972656,129.44876098632812,4,1,34.26062500343157,5.0,0.0,45.0,0,0
214,4.7,176.80569458007812,129.44822692871094,-0.0036609077360481024,-179.9753875732422,0.00012294339830987155,7.982898387126625e-05,8.112307356591547,0.318461537361145,0.0,0.0,2,-0.000705718994140625,5.2140094339847565e-05,-1.7166121324407868e-06,0.0011711950832959462,0.0015742972568503714,2.7963390350341797,0.010023198090493679,0.004982037004083395,9.809922218322754,2.986513209179975e-06,1.8967585901918937e-06,-0.0007450373377650976,4.712818622589111,176.8057098388672,129.44857788085938,4,1,34.66621893175866,5.0,0.0,45.0,0,0
215,4.75,176.4001007080078,129.44802856445312,-0.0036607549991458654,-179.9749755859375,0.00012294339830987155,6.93808397045359e-05,8.112300680573108,0.31840893626213074,0.0,0.0,2,0.000133514404296875,1.3792887330055237e-05,-1.3351427696761675e-06,0.0011637211401012957,0.0015774515130762305,2.7963390350341797,0.00502104964107275,-1.4063080016057938e-05,9.8100004196167,4.080842245457461e-06,1.3261076219350798e-06,0.0007443079957738519,4.712825775146484,176.40013122558594,129.44839477539062,4,1,35.07181285233608,5.0,0.0,45.0,0,0
216,4.800000000000001,175.99444580078125,129.44784545898438,-0.0036607549991458654,-179.9753875732422,0.00011611320951487869,5.604890247923322e-05,8.112329289841847,0.3184205889701843,0.0,0.0,2,-0.00057220458984375,4.423782229423523e-05,-1.525881998531986e-06,0.0011473495798485264,0.001592009434886724,2.7963390350341797,0.020017731934785843,-0.005018187221139669,9.8100004196167,4.748926585307345e-06,2.6723142809714773e-07,-0.0007450750563293695,4.712818622589111,175.99449157714844,129.44822692871094,4,1,35.47746780088793,5.0,0.0,45.0,0,0
217,4.8500000000000005,175.5887908935547,129.44764709472656,-0.0036607549991458654,-179.9749755859375,0.00011611320951487869,4.166518192505464e-05,8.112317845692141,0.31837770342826843,0.0,0.0,2,0.0002288818359375,2.7241185307502747e-06,-3.814693627646193e-07,0.0011634013258337154,0.0015642313442130549,2.7963390350341797,0.005022064317017794,0.0049906824715435505,9.8100004196167,5.151391178515041e-06,3.9386090833204435e-08,0.0007442865753546357,4.712825775146484,175.5888214111328,129.4480438232422,4,1,35.883122756614306,5.0,0.0,45.0,0,0
218,4.9,175.18312072753906,129.44744873046875,-0.0036607549991458654,-179.9753875732422,0.00012294339830987155,2.7338570362189785e-05,8.112343594192705,0.31839609146118164,0.0,0.0,2,-0.000514984130859375,3.250781446695328e-05,2.8610247682081535e-06,0.0011674498128596742,0.0015677598348958867,2.7963390350341797,2.104997656715568e-05,-4.680822712543886e-06,9.8100004196167,4.92267918161815e-06,-7.264983992172347e-07,-0.0007450861157849431,4.712818622589111,175.1831512451172,129.44786071777344,4,1,36.28879297112792,5.0,0.0,45.0,0,0
219,4.95,174.77745056152344,129.44725036621094,-0.0036607549991458654,-179.9749755859375,0.00012294339830987155,1.395280833094148e-05,8.112328335584147,0.3183571994304657,0.0,0.0,2,0.00030517578125,-8.274801075458527e-06,3.814693627646193e-07,0.0011709051941966222,0.0015598422428979347,2.7963390350341797,1.8866061509470455e-05,-0.00500238873064518,9.8100004196167,4.5996093831490725e-06,-6.571822268597316e-07,0.0007442737696692348,4.712825775146484,174.77748107910156,129.4476776123047,4,1,36.69446318564154,5.0,0.0,45.0,0,0
220,5.0,174.37179565429688,129.44705200195312,-0.0036609077360481024,-179.9753875732422,0.00012294339830987155,2.448738314342336e-06,8.112351223281069,0.318381130695343,0.0,0.0,2,-0.000457763671875,2.239365130662918e-05,2.098081495205406e-06,0.0011750835474239197,0.001579863364776737,2.7963390350341797,2.3197530026664026e-05,0.004999580793082714,9.8100004196167,3.642630645117606e-06,-1.2713898058791528e-06,-0.0007450830889865756,4.712818622589111,174.37184143066406,129.44749450683594,4,1,37.100118141367915,5.0,0.0,45.0,0,0
221,5.050000000000001,173.96612548828125,129.44686889648438,-0.0036609077360481024,-179.9749755859375,0.00012977358710486442,0.0,8.112335011193197,0.3183463215827942,0.0,0.0,2,0.000324249267578125,-1.728534698486328e-05,-1.5258774510584772e-06,0.0011712371221909404,0.0015691138168254753,2.7963390350341797,2.221941940661054e-05,4.440892098500626e-16,9.8100004196167,2.9427701520035043e-06,-8.918207754504692e-07,0.0007442770292982459,4.712825775146484,173.9661407470703,129.4473114013672,4,1,37.50578834870727,5.0,0.0,45.0,0,0
222,5.1000000000000005,173.5604705810547,129.44667053222656,-0.0036609077360481024,-179.9753875732422,0.00012977358710486442,0.0,8.11235789904238,0.31837156414985657,0.0,0.0,2,-0.000457763671875,1.5352852642536163e-05,-5.340575626178179e-06,0.0011712927050122723,0.0015655247313683866,2.7963390350341797,0.005020071752369404,-0.005002147518098354,9.8100004196167,1.9586370854085544e-06,-1.1049884278691025e-06,-0.0007450785487890244,4.712818622589111,173.5605010986328,129.44712829589844,4,1,37.91144330443365,5.0,0.0,45.0,0,0
223,5.15,173.15480041503906,129.44647216796875,-0.0036609077360481024,-179.9749755859375,0.00013660377589985728,-3.0517576306010596e-05,8.112339779702817,0.31833672523498535,0.0,0.0,2,0.000362396240234375,-2.1755695343017578e-05,-9.536756806483027e-07,0.0011580679466974754,0.0015581426750892918,2.7963390350341797,-0.004974427632987499,0.0050074090249836445,9.8100004196167,1.4019474292581435e-06,-6.521967748085444e-07,0.0007442901842296124,4.712825775146484,173.1548309326172,129.4469451904297,4,1,38.31711351894727,5.0,0.0,45.0,0,0
224,5.2,172.74913024902344,129.44627380371094,-0.0036609077360481024,-179.9753875732422,0.00013660377589985728,-3.0517576306010596e-05,8.11236171394751,0.31836479902267456,0.0,0.0,2,-0.000438690185546875,1.2130476534366608e-05,-2.098081495205406e-06,0.0011460150168267316,0.0015525137955215514,2.7963390350341797,2.1241306967567652e-05,-0.004994774702936411,9.8100004196167,4.580772667850397e-07,-8.256873229584016e-07,-0.0007450678385794163,4.712818622589111,172.74916076660156,129.44677734375,4,1,38.722783733460886,5.0,0.0,45.0,0,0
225,5.25,172.34347534179688,129.44607543945312,-0.0036609077360481024,-179.9749755859375,0.00013660377589985728,-3.0517576306010596e-05,8.11234264095658,0.3183313012123108,0.0,0.0,2,0.0003814697265625,-2.280808985233307e-05,1.9073468138230965e-07,0.0011579985194341523,0.0015520569025609236,2.7963390350341797,2.5572775484761223e-05,0.005005225073546171,9.8100004196167,-2.3322863285102358e-07,-2.410421018339548e-07,0.0007442921632900834,4.712825775146484,172.34352111816406,129.44659423828125,4,1,39.12843868918726,5.0,0.0,45.0,0,0
226,5.300000000000001,171.93780517578125,129.44589233398438,-0.0036609077360481024,-179.9753875732422,0.00013660377589985728,-3.0517576306010596e-05,8.112363621544151,0.31836071610450745,0.0,0.0,2,-0.00041961669921875,1.1338852345943451e-05,-9.536756806483027e-07,0.0011785166819174135,0.001543474864884006,2.7963390350341797,2.33888622460654e-05,5.225122094998369e-06,9.8100004196167,-9.645385716794408e-07,-4.4788677655560605e-07,-0.000745063996873796,4.712818622589111,171.93785095214844,129.4464111328125,4,1,39.53410889652662,5.0,0.0,45.0,0,0
227,5.3500000000000005,171.5321502685547,129.44569396972656,-0.0036610602401196957,-179.9749755859375,0.00013660377589985728,-3.0517576306010596e-05,8.11234264120253,0.3183285892009735,0.0,0.0,2,0.00041961669921875,-2.269633114337921e-05,8.583069757150952e-06,0.0011530832491685199,0.00153066975137951,2.7963387966156006,2.120475983247161e-05,-0.004994774702936411,9.809922218322754,-1.1446190910646692e-06,-2.7353170395372217e-08,0.0007442954229190946,4.712825775146484,171.5321807861328,129.44622802734375,4,1,39.939763852252995,5.0,0.0,45.0,0,0
228,5.4,171.12648010253906,129.44549560546875,-0.0036610602401196957,-179.9753875732422,0.00013660377589985728,0.0,8.112363621722071,0.3183608055114746,0.0,0.0,2,-0.00041961669921875,1.4477409422397614e-05,-5.149840944795869e-06,0.0011649442579599472,0.0015418058710210737,2.7963387966156006,2.5536604880471714e-05,0.004999999422580004,9.810078620910645,-1.280753963328607e-06,-1.5101200290246197e-07,-0.0007450602715834975,4.712818622589111,171.1265106201172,129.446044921875,4,1,40.345434066766614,5.0,0.0,45.0,0,0
229,5.45,170.72080993652344,129.44529724121094,-0.0036610602401196957,-179.9749755859375,0.00013660377589985728,0.0,8.112342641290374,0.3183285892009735,0.0,0.0,2,0.00041961669921875,-1.85379758477211e-05,0.0,0.0011690766711318868,0.0015448127423907596,2.7963387966156006,2.3388864065054804e-05,-4.440892098500626e-16,9.8100004196167,-1.092699221771909e-06,2.8826718789787265e-07,0.000744299148209393,4.712825775146484,170.72084045410156,129.44586181640625,4,1,40.751104281280234,5.0,0.0,45.0,0,0
